lang,name,lnum,lon,precision,rank,feature,languages,link,time,lat,seen,type,id
ru,Террористический акт на Дубровке,32,37.673333333333,,3866,ru,en|zh|af|vi|ca|it|ar|cs|et|es|ru|nl|pt|nb|th|pl|fr|bg|de|da|fa|fi|ja|he|ka|ko|sv|mk|sk|uk|sl|yue,http://stats.grok.se/ru/201506/Террористический акт на Дубровке,201506,55.725833333333,3041,event,Q4670
ru,Московский метрополитен,64,37.6214,0.01,900,ru,udm|eo|en|zh|vi|ca|it|cs|cy|ar|pt-br|ga|eu|et|az|cv|es|en-gb|ru|gl|nl|nn|tt|tr|id|lv|lt|sco|th|he|pl|be-tarask|be|fr|bg|uk|sl|hr|bn|de|da|fa|fi|hy|hu|ja|en-ca|ka|ro|pt|uz|kk|sr|mn|ko|sv|sk|sh|kv|ms|mr|ky|mhr|nb,http://stats.grok.se/ru/201506/Московский метрополитен,201506,55.6376,8189,other,Q5499
ru,Красная площадь,76,37.62,,6331,ru,vi|el|eo|en|zh|io|af|ko|is|it|cs|cy|ar|bg|ur|ga|gn|eu|et|az|id|es|ba|en-gb|ru|gl|nl|pt|la|udm|nb|tr|cv|lv|lt|pa|th|ti|ro|ca|pl|ta|be|fr|de|ku|en-ca|hr|fy|jv|bo|hu|fa|br|fi|hy|da|ja|he|ka|nn|bn|sr|oc|sv|mk|war|sk|kk|sh|be-tarask|uk|sl|pt-br|tt|vep,http://stats.grok.se/ru/201506/Красная площадь,201506,55.754166666667,3510,topo,Q41116
ru,Александро-Невская церковь,3,37.929166666667,0.00027777777777778,,ru,ru|en|nl,http://stats.grok.se/ru/201506/Александро-Невская церковь,201506,55.797222222222,2,religion,Q44074
ru,Национальный исследовательский ядерный университет «МИФИ»,7,37.664444444444,,,ru,ru|en|zh|ko|tr|zh-cn|uk,http://stats.grok.se/ru/201506/Национальный исследовательский ядерный университет «МИФИ»,201506,55.649722222222,1001,education,Q56837
ru,Битцевский лес,10,37.562777777778,0.00027777777777778,,ru,ru|en|zh|de|sv|bg|et|cs|fi|ja,http://stats.grok.se/ru/201506/Битцевский лес,201506,55.63,622,other,Q99296
ru,Апрелевка,39,37.05,0.016666666666667,,ru,eo|en|zh|oc|ca|it|ce|ar|io|et|az|en-gb|ru|nl|nn|nb|tl|lt|tg|ro|sah|war|pl|be|fr|de|sco|fa|fi|pnb|ja|en-ca|sr|ko|de-ch|ur|tt|uk|diq,http://stats.grok.se/ru/201506/Апрелевка,201506,55.533333333333,600,other,Q103676
ru,Главное разведывательное управление,34,37.524555555556,0.0000027777777777778,1258,ru,en|zh|ca|it|zh-hk|ar|cs|et|az|id|es|ru|nl|zh-tw|nb|tr|zh-cn|lt|pl|fr|bg|zh-sg|de|hu|fi|da|ja|he|zh-hans|ko|sv|zh-hant|uk|sl,http://stats.grok.se/ru/201506/Главное разведывательное управление,201506,55.7824,1721,other,Q115782
ru,Независимый Московский университет,5,37.5899,,,ru,ru|eo|de|en|sl,http://stats.grok.se/ru/201506/Независимый Московский университет,201506,55.7464,181,education,Q118736
ru,Видное,33,37.7,0.016666666666667,,ru,eo|en|zh|vi|ca|it|ce|ar|et|es|ru|nl|nn|nb|lv|tl|tg|ro|sah|war|pl|be|fr|de|fa|fi|pnb|ja|sr|ko|de-ch|uk|tt,http://stats.grok.se/ru/201506/Видное,201506,55.55,1024,other,Q133075
ru,Московский Кремль,80,37.617777777778,,1609,ru,el|eo|en|zh|sr-ec|ku-arab|af|vi|sr-el|sk|it|war|zh-hk|cy|ar|tg-latn|de-ch|ga|cs|et|ca|gl|id|es|en-gb|ru|az|nl|pt|la|zh-tw|eu|cv|lv|zh-cn|lt|sh|fy|tg|ro|arz|pl|ta|be|fr|hy|ku|io|sl|zh-sg|ku-latn|bn|de|ka|hu|fa|fi|mzn|da|ja|he|bg|nn|uz|zh-hans|sr|ko|sv|mk|zh-hant|hr|be-tarask|en-ca|li|kv|uk|na|sc|pt-br|nb,http://stats.grok.se/ru/201506/Московский Кремль,201506,55.751666666667,5408,other,Q133274
ru,Воскресенск,37,38.683333333333,0.016666666666667,,ru,eo|en|zh|vi|ca|it|ce|ar|cs|et|es|ru|nl|nn|nb|lv|tl|tg|ro|sah|war|pl|fr|bg|de|hu|fa|fi|pnb|ja|pt|sr|ko|de-ch|uk|sl|tt,http://stats.grok.se/ru/201506/Воскресенск,201506,55.316666666667,1111,other,Q133825
ru,Домодедово,38,37.75,0.016666666666667,,ru,el|eo|en|zh|vi|ca|it|ce|ar|et|az|ru|nl|nn|nb|tl|lv|lt|ro|sah|war|pl|be|fr|bg|de|sco|fa|fi|pnb|ja|pt|sr|ko|de-ch|uk|mhr|tt,http://stats.grok.se/ru/201506/Домодедово,201506,55.433333333333,256,other,Q135410
ru,Ледовый спортивный комплекс ЦСКА им. В. М. Боброва,11,37.538233,0.0001,,ru,ru|fr|en|sr|de|sv|sk|cs|fi|gl|pl,http://stats.grok.se/ru/201506/Ледовый спортивный комплекс ЦСКА им. В. М. Боброва,201506,55.794631,86,other,Q136412
ru,Универсальный спортивный комплекс ЦСКА,10,37.54263333,0.00000277777777778,,ru,en-gb|ru|en|en-ca|de|it|sk|bg|gl|he,http://stats.grok.se/ru/201506/Универсальный спортивный комплекс ЦСКА,201506,55.78923056,171,other,Q136414
ru,Царь-колокол,30,37.618333333333,,,ru,eo|en|zh|ca|it|cs|cv|es|ru|nl|pt|la|ro|pl|ta|be|fr|bg|hr|de|da|fi|ja|he|sr|sv|mk|sk|sh|uk,http://stats.grok.se/ru/201506/Царь-колокол,201506,55.750833333333,964,other,Q147875
ru,Царь-пушка,31,37.618055555556,,,ru,eo|en|zh|ca|it|cs|et|cv|es|ru|nl|pt|lt|ro|pl|ta|be|fr|hr|de|fa|fi|ja|he|ka|sr|ko|sv|mk|sk|uk,http://stats.grok.se/ru/201506/Царь-пушка,201506,55.751111111111,1226,other,Q147881
ru,Царицыно (дворцово-парковый ансамбль),14,37.682777777778,0.00027777777777778,8393,ru,ru|fr|en|nl|be|ca|de|eo|it|bg|uk|cs|cv|es,http://stats.grok.se/ru/201506/Царицыно (дворцово-парковый ансамбль),201506,55.616111111111,2685,topo,Q147994
ru,Котельники,27,37.866666666667,0.00027777777777778,,ru,sco|en|zh|it|ar|cs|ru|nl|nn|nb|tl|ro|sah|war|pl|fr|bg|de|fa|fi|pnb|ja|pt|sr|de-ch|uk|tt,http://stats.grok.se/ru/201506/Котельники,201506,55.65,559,other,Q155405
ru,Красноармейск,28,38.133333333333,0.00027777777777778,,ru,eo|en|zh|vi|it|ar|et|es|ru|nn|nb|tl|ro|war|pl|fr|bg|de|sco|fa|fi|pnb|ja|pt|sr|de-ch|uk|tt,http://stats.grok.se/ru/201506/Красноармейск,201506,56.1,257,other,Q155541
ru,Красногорск,40,37.333333333333,0.016666666666667,,ru,mhr|eo|en|zh|vi|it|ce|ar|et|az|es|ru|nl|nn|nb|lv|tl|ro|war|pl|be|fr|bg|hr|de|sco|fa|fi|pnb|ja|ka|uz|sr|ko|sv|de-ch|uk|hu|os|tt,http://stats.grok.se/ru/201506/Красногорск,201506,55.816666666667,1823,other,Q155569
ru,Кубинка,32,36.694722222222,0.00027777777777778,,ru,sco|en|zh|it|ce|ar|et|az|id|es|ru|nl|nn|nb|lv|tl|ro|war|pl|be|fr|bg|de|da|fa|fi|pnb|sr|sv|de-ch|uk|tt,http://stats.grok.se/ru/201506/Кубинка,201506,55.576388888889,1237,other,Q155902
ru,Московский,19,37.35,0.016666666666667,,ru,ru|fr|en|zh|nn|sr|pnb|de|it|de-ch|nb|tt|fa|tl|ar|fi|az|war|pl,http://stats.grok.se/ru/201506/Московский,201506,55.6,152,other,Q159261
ru,Павловский Посад,30,38.65,0.00027777777777778,,ru,eo|en|zh|vi|it|ce|ar|et|az|cv|es|ru|nl|nn|nb|tl|ro|war|pl|be|fr|de|fa|fi|pnb|ja|sr|ko|sl|tt,http://stats.grok.se/ru/201506/Павловский Посад,201506,55.783333333333,820,other,Q177908
ru,Комсомольская площадь,8,37.65416667,0.00027777777777778,,ru,be|fr|en|zh|ru|de|eo|be-tarask,http://stats.grok.se/ru/201506/Комсомольская площадь,201506,55.775,23,topo,Q181837
ru,Народный комиссариат внутренних дел СССР,58,37.6281,0.01,5965,ru,el|eo|en|zh|sr-ec|sr-el|it|zh-hk|ar|ml|eu|et|gl|id|es|ru|az|nl|pt|zh-tw|nb|tr|lv|zh-cn|lt|tg|ro|sah|ca|pl|yi|be|fr|bg|zh-sg|de|hu|fa|fi|da|ja|cs|he|hr|ka|zh-hans|sr|mn|ko|sv|zh-hant|sk|sh|be-tarask|uk|sl|sgs|tt,http://stats.grok.se/ru/201506/Народный комиссариат внутренних дел СССР,201506,55.7606,3278,other,Q182449
ru,Государственная Третьяковская галерея,61,37.620277777778,,6840,ru,el|eo|en|zh|sr-ec|sr-el|it|ce|kk-tr|zh-hk|ar|kk-cyrl|eu|et|az|cv|es|ru|nl|kk-cn|pt|zh-tw|nb|tr|kk-arab|zh-cn|lt|kk-kz|ro|ca|pl|be|fr|bg|zh-sg|fy|de|hu|fa|fi|mzn|da|ja|cs|he|hr|ka|kk-latn|nn|zh-hans|sr|ko|sv|mk|zh-hant|sk|kk|hy|be-tarask|uk|lv,http://stats.grok.se/ru/201506/Государственная Третьяковская галерея,201506,55.741388888889,1944,other,Q183334
ru,Домодедово,58,37.906111111111,,,ru,eo|en|zh|af|vi|ak|it|zh-hk|ar|av|cs|et|id|es|ru|nl|nb|pt|zh-tw|tt|tl|cv|zh-cn|lt|sco|th|tg|ro|ca|pl|ta|be|fr|bg|uk|zh-sg|de|hu|fa|bs|fi|da|ja|he|hr|ka|uz|zh-hans|ko|sv|zh-hant|sk|sh|be-tarask|ms|na|mhr|eu,http://stats.grok.se/ru/201506/Домодедово,201506,55.408611111111,256,other,Q186614
ru,Центральный музей Военно-воздушных сил РФ,13,38.181389,0.00027777777777778,,ru,el|fr|en|zh|ru|hr|de|it|et|cs|fi|ja|pl,http://stats.grok.se/ru/201506/Центральный музей Военно-воздушных сил РФ,201506,55.842778,532,other,Q190445
ru,Солнечногорск,28,36.995,0.00027777777777778,,ru,eo|en|zh|vi|it|ce|ar|et|az|es|ru|nl|nn|nb|tl|tg|ro|war|pl|fr|bg|de|fa|fi|pnb|sr|sv|tt,http://stats.grok.se/ru/201506/Солнечногорск,201506,56.184444444444,887,other,Q196386
ru,Электросталь,40,38.45,0.016666666666667,,ru,mhr|eo|en|zh|vi|ca|it|ar|eu|et|az|cv|ru|nl|nn|nb|tl|lv|lt|tg|ro|war|pl|be|fr|bg|hr|de|fa|fi|pnb|ja|pt|uz|sr|ko|sv|uk|os|tt,http://stats.grok.se/ru/201506/Электросталь,201506,55.8,1257,other,Q198419
ru,Юбилейный,24,37.85,0.016666666666667,,ru,eo|en|zh|ca|it|ar|az|ru|nn|nb|tl|sah|war|pl|be|fr|de|fa|fi|pnb|pt|sr|uk|tt,http://stats.grok.se/ru/201506/Юбилейный,201506,55.933333333333,110,other,Q198759
ru,Лужники,52,37.553611111111,0.00027777777777778,,ru,el|sco|en|zh|sr-ec|is|it|zh-hk|ar|pt-br|ga|cs|et|ca|id|es|en-gb|ru|nl|pt|la|zh-tw|nb|tr|lv|zh-cn|lt|th|ro|sr-el|pl|be|fr|bg|en-ca|zh-sg|de|hu|fa|fi|da|ja|he|zh-hans|sr|ko|sv|de-ch|zh-hant|hr|uk|mr,http://stats.grok.se/ru/201506/Лужники,201506,55.715833333333,123,other,Q202163
ru,Киевская,15,37.5672,0.0001,,ru,ru|fr|en|eo|pt|de|ko|it|sv|pl|uk|cs|fi|ja|es,http://stats.grok.se/ru/201506/Киевская,201506,55.7437,46,other,Q205385
ru,Внуково,49,37.2675,,,ru,sco|en|zh|sr-ec|af|vi|sr-el|it|zh-hk|sah|eo|av|cs|id|es|ru|nl|nb|pt|zh-tw|tt|tl|cv|zh-cn|lt|tg|pl|fr|uk|zh-sg|de|hu|fa|bs|fi|da|ja|he|hr|zh-hans|sr|ko|sv|zh-hant|sk|kv|ms|mhr|eu,http://stats.grok.se/ru/201506/Внуково,201506,55.596111111111,132,other,Q273462
ru,Орлёнок (экранолёт),10,37.456243,0.00000277777777778,,ru,ru|fr|en|nl|el|de|it|hu|sl|es,http://stats.grok.se/ru/201506/Орлёнок (экранолёт),201506,55.851593,202,other,Q277771
ru,Кубок Кремля,23,37.626,0.00002777777777778,,ru,en|zh|ca|it|cs|cv|es|ru|nl|pt|tr|pl|fr|bg|de|hu|ja|he|zh-hans|sr|sv|sk|uk,http://stats.grok.se/ru/201506/Кубок Кремля,201506,55.781,233,other,Q299603
ru,Менделеевская,11,37.598794444444,0.0000027777777777778,,ru,ru|eo|en|pt|de|ko|it|sv|uk|cs|pl,http://stats.grok.se/ru/201506/Менделеевская,201506,55.782058333333,11,other,Q302147
ru,Серпуховская,10,37.624444444444,0.00027777777777778,,ru,ru|eo|en|pt|ko|it|sv|uk|cs|pl,http://stats.grok.se/ru/201506/Серпуховская,201506,55.728055555556,10,other,Q338822
ru,Государственный центр современного искусства,3,37.60777778,0.000010,,ru,ru|de|en,http://stats.grok.se/ru/201506/Государственный центр современного искусства,201506,55.78916667,128,other,Q367690
ru,Богоявленский собор в Елохове,9,37.674444444444,,,ru,ru|fr|en|nl|pt|de|it|sk|pl,http://stats.grok.se/ru/201506/Богоявленский собор в Елохове,201506,55.7725,427,religion,Q401613
ru,Курская,11,37.659166666667,0.00027777777777778,,ru,ru|eo|en|pt|de|ko|it|sv|uk|ja|pl,http://stats.grok.se/ru/201506/Курская,201506,55.758333333333,40,other,Q432042
ru,Мемориальная синагога на Поклонной горе,5,37.496277777778,0.00027777777777778,,ru,ru|de|en|es|he,http://stats.grok.se/ru/201506/Мемориальная синагога на Поклонной горе,201506,55.73,127,religion,Q445066
ru,Военно-воздушная академия имени Ю. А. Гагарина,6,38.18138889,0.00027777777777778,,ru,ru|en|de|hu|uk|cs,http://stats.grok.se/ru/201506/Военно-воздушная академия имени Ю. А. Гагарина,201506,55.84277778,246,education,Q490188
ru,Госплан СССР,25,37.61527778,0.00027777777777778,,ru,en|zh|ca|it|zh-hk|eu|es|ru|nl|pt|nb|tr|ro|fr|de|hu|fi|ja|ka|uz|zh-hans|ko|sv|zh-hant|uk,http://stats.grok.se/ru/201506/Госплан СССР,201506,55.7575,666,other,Q497757
ru,ГУМ,26,37.621388888889,,,ru,eo|en|zh|af|it|et|cv|es|ru|nl|nn|la|pl|fr|hr|de|da|fi|hu|ja|he|sr|sv|mk|sk|sh,http://stats.grok.se/ru/201506/ГУМ,201506,55.754722222222,952,other,Q549498
ru,Курский вокзал,11,37.660555555556,0.00027777777777778,,ru,be|fr|en|nl|ru|de|sv|be-tarask|fi|zh|pl,http://stats.grok.se/ru/201506/Курский вокзал,201506,55.7575,909,other,Q577854
ru,Дворец Советов,23,37.605833333333,,,ru,en|zh|simple|ca|it|ar|cs|es|ru|nl|lv|lt|pl|fr|bg|de|fi|ja|ka|ko|sv|sk|uk,http://stats.grok.se/ru/201506/Дворец Советов,201506,55.744722222222,1875,other,Q585060
ru,Локомотив,22,37.741169,0.000010,,ru,el|en|sr-ec|sr-el|it|ar|es|ru|nl|pt|nb|tr|lt|ca|pl|fr|bg|de|fi|ja|he|sr,http://stats.grok.se/ru/201506/Локомотив,201506,55.80355,1191,other,Q595937
ru,Московский зоопарк,20,37.577222222222,0.00027777777777778,,ru,ru|fr|en|nl|eo|hr|sv|de|it|da|bg|pl|uk|fi|cs|et|hu|ar|ja|es,http://stats.grok.se/ru/201506/Московский зоопарк,201506,55.761944444444,1190,topo,Q613676
ru,Ростокинский акведук,5,37.655555555556,0.00027777777777778,,ru,ru|de|en|es|da,http://stats.grok.se/ru/201506/Ростокинский акведук,201506,55.828888888889,285,other,Q623417
ru,район Арбат,11,37.59,0.00027777777777778,,ru,ru|sco|en|zh|pt|de|sv|it|fr|bg|es,http://stats.grok.se/ru/201506/район Арбат,201506,55.751,0,adm,Q626920
ru,Буран 1.02,20,37.59666667,0.00027777777777778,,ru,ru|fr|bg|nl|pt|tr|ca|de|ko|it|hu|en|pl|uk|sl|zh|sv|ja|es|he,http://stats.grok.se/ru/201506/Буран 1.02,201506,55.72861111,273,other,Q633867
ru,Зачатьевский монастырь,4,37.599197,0.000010,,ru,ru|en|nl|pl,http://stats.grok.se/ru/201506/Зачатьевский монастырь,201506,55.739567,204,religion,Q640712
ru,Шаболовская,10,37.607777777778,0.00027777777777778,,ru,ru|fr|en|uk|pt|it|pl|eo|cs|es,http://stats.grok.se/ru/201506/Шаболовская,201506,55.718611111111,13,other,Q641953
ru,Новогиреево,8,37.817222222222,0.00027777777777778,,ru,ru|eo|en|pt|it|uk|cs|pl,http://stats.grok.se/ru/201506/Новогиреево,201506,55.751666666667,27,other,Q662318
ru,Отрадное,9,37.604722222222,0.00027777777777778,,ru,ru|eo|en|pt|ko|it|uk|cs|pl,http://stats.grok.se/ru/201506/Отрадное,201506,55.863055555556,110,other,Q669787
ru,Подколокольный переулок,2,37.64375,0.000027777777777778,,ru,ru|fr,http://stats.grok.se/ru/201506/Подколокольный переулок,201506,55.752694444444,144,topo,Q679622
ru,Армянское кладбище (Москва),5,37.553722222222,0.0000027777777777778,,ru,ru|fr|en|de|uk,http://stats.grok.se/ru/201506/Армянское кладбище (Москва),201506,55.766522222222,239,other,Q685338
ru,Государственная дума,45,37.615277777778,,2844,ru,en|zh|sr-ec|af|vi|sr-el|it|ar|cs|et|gl|id|es|ru|az|nl|pt|tt|cv|lv|lt|ro|ca|pl|be|fr|bg|be-x-old|ba|kk-arab|bn|hu|ja|he|ka|kk-latn|kk|sr|ko|sv|kk-cyrl|be-tarask|uk|os|nb,http://stats.grok.se/ru/201506/Государственная дума,201506,55.7575,8904,other,Q715641
ru,Центральный научно-исследовательский институт машиностроения,6,37.80388889,0.0001,,ru,ru|fr|en|pt|it|hu,http://stats.grok.se/ru/201506/Центральный научно-исследовательский институт машиностроения,201506,55.91111111,209,education,Q737127
ru,Эхо Москвы,19,37.59631111,0.00000277777777778,5742,ru,vi|ru|fr|en|zh|uk|tr|nb|de|ko|it|lt|br|fi|cs|et|tt|pl|udm,http://stats.grok.se/ru/201506/Эхо Москвы,201506,55.752275,2679,other,Q749928
ru,усадьба Люблино,2,37.743333,0.00027777777777778,,ru,ru|fr,http://stats.grok.se/ru/201506/усадьба Люблино,201506,55.688333,0,other,Q772903
en,Nordstar Tower,3,37.553611111111,,,en,fr|en|pl,http://stats.grok.se/en/201506/Nordstar Tower,201506,55.776111111111,50,other,Q788299
en,Nordstar Tower,3,37.5531,0.15971961546205,,en,fr|en|pl,http://stats.grok.se/en/201506/Nordstar Tower,201506,55.7758,50,other,Q788299
ru,Министерство иностранных дел Российской Федерации,20,37.58433333,0.00002777777777778,,ru,ru|fr|en|zh|ba|be|hr|sr|tt|de|ko|ja|hy|es|uk|vi|fi|cv|pl|he,http://stats.grok.se/ru/201506/Министерство иностранных дел Российской Федерации,201506,55.74616667,1158,other,Q789889
ru,Мосфильмовская улица,8,37.516666666667,0.00027777777777778,,ru,ru|en|zh|zh-hans|tr|zh-hant|zh-hk|bg,http://stats.grok.se/ru/201506/Мосфильмовская улица,201506,55.716111111111,164,topo,Q795107
ru,Ивановка,1,38.123333333333,0.00027777777777778,,ru,ru,http://stats.grok.se/ru/201506/Ивановка,201506,55.518611111111,206,other,Q799980
ru,Центральный банк Российской Федерации,23,37.620555555556,0.000027777777777778,2269,ru,en|ca|it|cs|id|es|ru|nl|nb|tr|cv|pl|fr|ba|de|fi|rup|ja|he|sr|mk|uk|tt,http://stats.grok.se/ru/201506/Центральный банк Российской Федерации,201506,55.763027777778,6043,other,Q806651
ru,Обрушение Басманного рынка,3,37.6803,0.015969339258379,,ru,ru|de|en,http://stats.grok.se/ru/201506/Обрушение Басманного рынка,201506,55.7694,119,event,Q810428
ru,Преображенское,7,37.72583333,0.00027777777777778,,ru,ru|fr|bg|pt|de|it|en,http://stats.grok.se/ru/201506/Преображенское,201506,55.79805556,31,other,Q842239
ru,Дом № 14 по Тверской улице,4,37.60698389,0.00000277777777778,,ru,ru|fr|de|cv,http://stats.grok.se/ru/201506/Дом № 14 по Тверской улице,201506,55.76414694,1,other,Q844095
ru,Международный авиационно-космический салон,22,38.14638889,0.00027777777777778,,ru,en|zh|vi|zh-hk|es|ru|zh-tw|nb|lt|fr|ms|de|hu|fa|fi|ja|he|zh-hans|ko|zh-hant|uk|sl,http://stats.grok.se/ru/201506/Международный авиационно-космический салон,201506,55.55833333,736,other,Q845688
ru,Выставка достижений народного хозяйства,21,37.632222222222,0.00027777777777778,,ru,ru|eo|en|zh|nb|pt|zh-hans|sv|de|fr|zh-hant|zh-hk|lt|sah|es|fi|hu|ar|ja|pl|he,http://stats.grok.se/ru/201506/Выставка достижений народного хозяйства,201506,55.829722222222,2522,other,Q855493
ru,Московский пожар (1812),10,37.63,0.079806984615301,,ru,ru|fr|en|nl|ca|de|it|es|ro|pl,http://stats.grok.se/ru/201506/Московский пожар (1812),201506,55.75,727,other,Q897785
ru,Чкаловский,7,38.061666666667,0.00027777777777778,,ru,ru|en|ms|de|fa|uk|tg,http://stats.grok.se/ru/201506/Чкаловский,201506,55.878333333333,37,other,Q908071
ru,Софрино,5,37.931791666667,0.0000027777777777778,,ru,ru|ce|de|it|pl,http://stats.grok.se/ru/201506/Софрино,201506,56.135555555556,243,other,Q915653
ru,Селятино,6,36.966666666667,0.016666666666667,,ru,ru|hy|de|it|ce|pl,http://stats.grok.se/ru/201506/Селятино,201506,55.516666666667,213,other,Q915670
ru,14-й корпус Кремля,6,37.62017,0.00000277777777778,,ru,ru|en|ba|de|it|mk,http://stats.grok.se/ru/201506/14-й корпус Кремля,201506,55.752236,328,other,Q920292
ru,Московская кольцевая автомобильная дорога,23,37.6172,0.015957102293379,,ru,eo|en|zh|ca|it|cs|et|ru|nl|pt|nb|lt|pl|be|fr|hy|de|da|ja|he|zh-hans|sv|uk,http://stats.grok.se/ru/201506/Московская кольцевая автомобильная дорога,201506,55.7395,1773,other,Q925808
ru,Давка на Ходынском поле,13,37.53111111,0.00027777777777778,,ru,ru|eo|en|nl|pt|de|fr|it|pl|uk|cs|es|he,http://stats.grok.se/ru/201506/Давка на Ходынском поле,201506,55.78722222,1208,other,Q942894
ru,Марьино,8,37.743888888889,0.00027777777777778,,ru,ru|eo|en|pt|it|uk|cs|pl,http://stats.grok.se/ru/201506/Марьино,201506,55.648888888889,143,other,Q971065
ru,Бутовский полигон,8,37.594166666667,0.00027777777777778,,ru,ru|fr|en|de|lv|lt|uk|pl,http://stats.grok.se/ru/201506/Бутовский полигон,201506,55.533333333333,1032,other,Q1018007
ru,Бутырская тюрьма,12,37.593888888889,,,ru,ru|fr|en|de|sv|eo|lt|es|uk|et|mhr|pl,http://stats.grok.se/ru/201506/Бутырская тюрьма,201506,55.784444444444,1796,other,Q1018222
ru,Томилино,9,37.95,0.00027777777777778,,ru,ru|fr|en|de|it|ce|sco|os|pl,http://stats.grok.se/ru/201506/Томилино,201506,55.65,331,other,Q1025836
ru,Город Столиц,20,37.538888888889,,,ru,en-gb|ru|fr|en|nl|pt|fa|de|ko|sv|de-ch|it|eu|pt-br|pl|eo|cs|ja|es|en-ca,http://stats.grok.se/ru/201506/Город Столиц,201506,55.747222222222,1159,other,Q1034657
ru,Российская государственная библиотека,29,37.609722,0.000010,,ru,en|zh|ca|it|cy|ar|cs|et|az|id|es|ru|nl|nb|tr|war|pl|fr|bg|de|fa|fi|hy|ja|he|ilo|ko|sv|uk,http://stats.grok.se/ru/201506/Российская государственная библиотека,201506,55.751944,1065,other,Q1048694
ru,Храм Рождества Христова (Мытищи),3,37.748055555556,0.00027777777777778,,ru,ru|de|nl,http://stats.grok.se/ru/201506/Храм Рождества Христова (Мытищи),201506,55.916666666667,32,religion,Q1078570
ru,Сколково,15,37.35777778,0.00027777777777778,,ru,ru|fr|en|io|pt|ca|de|sv|sk|pl|uk|fi|az|es|he,http://stats.grok.se/ru/201506/Сколково,201506,55.6975,339,other,Q1091186
ru,Черёмушки,7,37.56055556,0.00027777777777778,,ru,ru|fr|en|pt|it|mk|sco,http://stats.grok.se/ru/201506/Черёмушки,201506,55.66472222,119,other,Q1112926
ru,Гжель,9,38.44444444,0.00027777777777778,,ru,ru|fr|en|nl|be|de|ce|pl|es,http://stats.grok.se/ru/201506/Гжель,201506,55.60388889,1168,other,Q1127520
ru,Казанский собор,22,37.619252777778,0.0000027777777777778,,ru,en|zh|sr-ec|af|sr-el|it|zh-hk|es|ru|nl|nb|pl|fr|de|da|he|zh-hans|sr|sv|mk|zh-hant|sk,http://stats.grok.se/ru/201506/Казанский собор,201506,55.755405555556,144,religion,Q1140402
ru,Цветной бульвар,10,37.620555555556,0.00027777777777778,,ru,ru|eo|en|pt|ko|it|sv|uk|cs|pl,http://stats.grok.se/ru/201506/Цветной бульвар,201506,55.771666666667,222,other,Q1187140
ru,Тимирязевская,10,37.576666666667,0.00027777777777778,,ru,ru|eo|en|pt|ko|it|sv|uk|cs|pl,http://stats.grok.se/ru/201506/Тимирязевская,201506,55.818055555556,12,other,Q1187161
ru,Боровицкая,10,37.607222222222,0.00027777777777778,,ru,ru|fr|en|uk|pt|ko|it|eo|cs|pl,http://stats.grok.se/ru/201506/Боровицкая,201506,55.751111111111,5,other,Q1187464
ru,Бибирево,11,37.603055555556,0.00027777777777778,,ru,ru|fr|en|nl|uk|pt|ko|it|eo|cs|pl,http://stats.grok.se/ru/201506/Бибирево,201506,55.884166666667,40,other,Q1187471
ru,Петровско-Разумовская,9,37.574444,0.0001,,ru,ru|eo|en|pt|ko|it|uk|cs|pl,http://stats.grok.se/ru/201506/Петровско-Разумовская,201506,55.836944,3,other,Q1187479
ru,Тульская,9,37.6225,0.00027777777777778,,ru,ru|eo|en|pt|ko|it|uk|cs|pl,http://stats.grok.se/ru/201506/Тульская,201506,55.708611111111,21,other,Q1187586
ru,Южная,9,37.608611111111,0.00027777777777778,,ru,ru|eo|en|pt|ko|it|uk|cs|pl,http://stats.grok.se/ru/201506/Южная,201506,55.622222222222,18,other,Q1187776
ru,Павелецкая,10,37.636388888889,0.00027777777777778,,ru,ru|fr|en|uk|pt|ko|it|sv|eo|pl,http://stats.grok.se/ru/201506/Павелецкая,201506,55.730555555556,48,other,Q1187837
ru,Открытие Арена,23,37.435556,0.0001,6486,ru,en|zh|it|zh-hk|ar|es|ru|pt|tr|ro|pl|be|fr|bg|hr|de|hu|ja|uz|zh-hans|ko|zh-hant|uk,http://stats.grok.se/ru/201506/Открытие Арена,201506,55.8175,4078,other,Q1190634
ru,Сокольники,12,37.6802,0.0001,,ru,ru|eo|en|nl|pt|ko|fr|it|es|uk|cs|pl,http://stats.grok.se/ru/201506/Сокольники,201506,55.7888,140,other,Q1190787
ru,Маяковская,16,37.596388888889,0.00027777777777778,,ru,ru|fr|en|zh|pt|zh-hans|it|de|ko|sv|zh-hant|zh-hk|uk|cs|eo|pl,http://stats.grok.se/ru/201506/Маяковская,201506,55.769166666667,18,other,Q1190921
ru,Авиакатастрофа Ил-62 в окрестностях посёлка Менделеево 6 июля 1982 года,7,37.25833333,0.00027777777777778,,ru,ru|eo|en|zh|de|fr|ar,http://stats.grok.se/ru/201506/Авиакатастрофа Ил-62 в окрестностях посёлка Менделеево 6 июля 1982 года,201506,56.0275,6,other,Q1190969
ru,Красносельская,13,37.6673,0.0001,,ru,ru|fr|en|nl|pt|ko|sv|it|es|uk|cs|eo|pl,http://stats.grok.se/ru/201506/Красносельская,201506,55.7801,14,other,Q1191222
ru,Государственный космический научно-производственный центр имени М. В. Хруничева,19,37.4875,0.01,,ru,ru|fr|en|zh|pt|zh-hans|zh-tw|de|ko|zh-hant|zh-hk|ja|ar|cs|fi|hu|nl|id|pl,http://stats.grok.se/ru/201506/Государственный космический научно-производственный центр имени М. В. Хруничева,201506,55.7564,587,other,Q1197016
ru,Новослободская,14,37.601166666667,0.0000027777777777778,,ru,ru|eo|en|th|pt|de|ko|sv|it|es|uk|cs|ja|pl,http://stats.grok.se/ru/201506/Новослободская,201506,55.779516666667,9,other,Q1200389
ru,Воробьёвы горы,13,37.5592,0.0001,,ru,ru|fr|en|pt|hr|de|ko|sv|it|uk|cs|eo|pl,http://stats.grok.se/ru/201506/Воробьёвы горы,201506,55.7103,1785,other,Q1200768
ru,Добрынинская,12,37.622508333333,0.0000027777777777778,,ru,ru|eo|en|pt|de|ko|it|sv|uk|cs|ja|pl,http://stats.grok.se/ru/201506/Добрынинская,201506,55.728983333333,8,other,Q1233589
ru,Донской монастырь,15,37.602083333333,0.000027777777777778,,ru,en-gb|ru|fr|hy|nl|be|de|sv|de-ch|it|cs|en|el|pl|en-ca,http://stats.grok.se/ru/201506/Донской монастырь,201506,55.714444444444,678,religion,Q1242146
ru,Литературный институт имени А. М. Горького,22,37.60225,0.00002777777777778,,ru,en|zh|zh-hk|bg|et|az|en-gb|ru|gl|lv|lt|pa|pl|be|fr|hy|de|en-ca|zh-hans|de-ch|zh-hant|uk,http://stats.grok.se/ru/201506/Литературный институт имени А. М. Горького,201506,55.76247222,397,education,Q1250779
ru,Оружейная палата,17,37.61340611,0.00000277777777778,,ru,be|fr|en|uz|pt|ru|sr|de|it|mk|bg|pl|uk|fi|ka|es|he,http://stats.grok.se/ru/201506/Оружейная палата,201506,55.74954306,721,other,Q1304121
ru,Савёловская,10,37.5875,0.00027777777777778,,ru,ru|eo|en|pt|de|ko|it|uk|cs|pl,http://stats.grok.se/ru/201506/Савёловская,201506,55.793611111111,40,other,Q1316293
ru,Динамо,12,37.558055555556,0.00027777777777778,,ru,ru|fr|en|nl|uk|pt|ko|it|sv|eo|cs|pl,http://stats.grok.se/ru/201506/Динамо,201506,55.789722222222,667,other,Q1317045
ru,Витязь (ледовый дворец),3,37.51577889,0.00000277777777778,,ru,ru|de|en,http://stats.grok.se/ru/201506/Витязь (ледовый дворец),201506,55.42027611,125,other,Q1319514
ru,Палеонтологический музей им. Ю. А. Орлова,4,37.51388889,0.00027777777777778,,ru,sk|ru|de|en,http://stats.grok.se/ru/201506/Палеонтологический музей им. Ю. А. Орлова,201506,55.62388889,25,other,Q1327180
ru,Юго-Западная,11,37.4833,0.0001,,ru,ru|fr|en|pt|ko|sv|it|uk|cs|eo|pl,http://stats.grok.se/ru/201506/Юго-Западная,201506,55.6637,17,other,Q1341272
ru,Тверская,11,37.605555555556,0.00027777777777778,,ru,ru|fr|en|pt|ko|sv|it|uk|cs|eo|pl,http://stats.grok.se/ru/201506/Тверская,201506,55.765,19,other,Q1341694
ru,Фрунзенская,12,37.5786,0.0001,,ru,ru|fr|en|nl|pt|ko|sv|it|uk|cs|eo|pl,http://stats.grok.se/ru/201506/Фрунзенская,201506,55.7267,28,other,Q1341734
ru,Башня на Набережной,19,37.536944444444,,,ru,ru|fr|en|nl|pt|zh-hans|vi|de|it|zh-hant|sk|zh-hk|es|uk|eu|zh|sv|eo|pl,http://stats.grok.se/ru/201506/Башня на Набережной,201506,55.746666666667,599,other,Q1344004
ru,Белорусская,14,37.583888888889,0.00027777777777778,,ru,ru|fr|en|uk|pt|be|ko|it|sv|be-tarask|eo|cs|pl|ba,http://stats.grok.se/ru/201506/Белорусская,201506,55.776944444444,27,other,Q1348899
ru,Первый Московский часовой завод,3,37.6636,0.00000277777777778,,ru,ru|de|zh,http://stats.grok.se/ru/201506/Первый Московский часовой завод,201506,55.73593,342,other,Q1361954
ru,Павелецкая,11,37.636388888889,0.00027777777777778,,ru,ru|eo|en|pt|de|ko|it|sv|uk|cs|pl,http://stats.grok.se/ru/201506/Павелецкая,201506,55.730555555556,48,other,Q1364499
ru,Новокузнецкая,12,37.629444444444,0.00027777777777778,,ru,ru|fr|en|uk|pt|ko|sv|it|fa|eo|cs|pl,http://stats.grok.se/ru/201506/Новокузнецкая,201506,55.741111111111,12,other,Q1365632
ru,Белорусский вокзал,20,37.580277777778,0.00027777777777778,,ru,be|fr|en|nl|ru|zh-hans|de|it|de-ch|zh-hant|zh-hk|ja|tl|es|eo|fi|sv|zh|cv|pl,http://stats.grok.se/ru/201506/Белорусский вокзал,201506,55.776388888889,697,other,Q1367269
ru,Павелецкий вокзал,12,37.639166666667,0.00027777777777778,,ru,be|fr|en|nl|ru|de|be-tarask|uk|fi|zh|cv|pl,http://stats.grok.se/ru/201506/Павелецкий вокзал,201506,55.729444444444,590,other,Q1394233
ru,Радиомачта Балашиха,5,37.89138889,0.00027777777777778,,ru,ru|fr|de|en|pt,http://stats.grok.se/ru/201506/Радиомачта Балашиха,201506,55.79277778,26,other,Q1423249
ru,Быково (аэропорт),17,38.063888888889,0.00027777777777778,,ru,ru|fr|en|zh|be|de|ko|sv|ja|it|fa|tl|be-tarask|uk|fi|cv|es,http://stats.grok.se/ru/201506/Быково (аэропорт),201506,55.622222222222,444,other,Q1432096
ru,Фряново,5,38.44,0.00027777777777778,,ru,ru|hy|de|it|ce,http://stats.grok.se/ru/201506/Фряново,201506,56.134166666667,190,other,Q1469378
ru,Московский государственный технический университет имени Н. Э. Баумана,21,37.684722222222,,,ru,ru|fr|en|nl|pt|be|zh-hans|vi|de|az|it|kk-cyrl|zh-hant|kk-arab|zh-hk|bg|kk|uk|fi|kk-latn|zh,http://stats.grok.se/ru/201506/Московский государственный технический университет имени Н. Э. Баумана,201506,55.765833333333,1681,education,Q1472245
en,VTB Arena,2,37.5597,0.01,,en,lt|en,http://stats.grok.se/en/201506/VTB Arena,201506,55.7914,468,other,Q1475155
ru,Измайловский парк,5,37.78944444,0.00027777777777778,,ru,ru|fr|de|en|it,http://stats.grok.se/ru/201506/Измайловский парк,201506,55.77722222,855,topo,Q1511291
ru,Рогожское кладбище,5,37.702658333333,0.0000027777777777778,,ru,ru|fr|de|en|pl,http://stats.grok.se/ru/201506/Рогожское кладбище,201506,55.740363888889,189,other,Q1512433
ru,Черкизовский рынок,9,37.7525,0.00027777777777778,,ru,ru|en|zh|zh-hans|de|zh-hant|zh-hk|es|pl,http://stats.grok.se/ru/201506/Черкизовский рынок,201506,55.8,411,other,Q1549518
ru,Российский государственный университет нефти и газа имени И. М. Губкина,7,37.55527778,0.00027777777777778,,ru,ru|eo|en|ba|sq|de|cs,http://stats.grok.se/ru/201506/Российский государственный университет нефти и газа имени И. М. Губкина,201506,55.69194444,1415,education,Q1552981
ru,Лобное место,9,37.6225,0.00027777777777778,,ru,ru|ka|en|af|de|it|es|pl|he,http://stats.grok.se/ru/201506/Лобное место,201506,55.75333333,530,other,Q1589656
ru,Мультимедиа Арт Музей,6,37.60252778,0.00002777777777778,,ru,ru|fr|en|de|cs|es,http://stats.grok.se/ru/201506/Мультимедиа Арт Музей,201506,55.78136111,171,other,Q1604002
ru,Пушкинская,10,37.606687,0.0000010,,ru,ru|eo|en|pt|de|it|fr|uk|cs|pl,http://stats.grok.se/ru/201506/Пушкинская,201506,55.76544,37,other,Q1627587
ru,ВДНХ,13,37.641494444444,0.0000027777777777778,,ru,ru|fr|en|uk|pt|de|tr|sv|it|es|eo|cs|pl,http://stats.grok.se/ru/201506/ВДНХ,201506,55.822283333333,328,other,Q1627784
ru,"Пекин (гостиница, Москва)",5,37.59400806,0.00000277777777778,,ru,ru|eo|de|en|pl,"http://stats.grok.se/ru/201506/Пекин (гостиница, Москва)",201506,55.768716,143,other,Q1631004
ru,Алма-Атинская,13,37.766111111111,0.00027777777777778,,ru,ru|fr|en|ba|kk-arab|sv|kk-cyrl|kk|kk-latn|uk|cs|eo|pl,http://stats.grok.se/ru/201506/Алма-Атинская,201506,55.632777777778,19,other,Q1652933
ru,Храм Троицы в Орехове-Борисове,6,37.71195,0.000010,,ru,ru|en|nl|de|it|pl,http://stats.grok.se/ru/201506/Храм Троицы в Орехове-Борисове,201506,55.627319,136,religion,Q1665853
ru,Гостиница «Центральная»,5,37.608732,0.00000277777777778,,ru,ru|nds|de|en|ja,http://stats.grok.se/ru/201506/Гостиница «Центральная»,201506,55.763163,3,other,Q1676676
en,Chernoi,3,38.06666667,0.016666666666667,,en,fa|en|tg,http://stats.grok.se/en/201506/Chernoi,201506,55.75,18,other,Q1708331
ru,Посольство Сирии в Москве,4,37.594601,0.00000277777777778,,ru,ru|fr|de|en,http://stats.grok.se/ru/201506/Посольство Сирии в Москве,201506,55.739989,4,other,Q1710068
ru,Ногинский район,10,38.45,0.00027777777777778,,ru,ru|sco|en|vi|de|it|hy|uk|pnb|cv,http://stats.grok.se/ru/201506/Ногинский район,201506,55.85,418,adm,Q1743926
ru,Пушкинский район,9,37.83333333,0.016666666666667,,ru,ru|sco|en|vi|de|it|hy|pnb|cv,http://stats.grok.se/ru/201506/Пушкинский район,201506,56.0,24,adm,Q1773432
ru,Косякино,2,38.19027778,0.00027777777777778,,ru,ru|de,http://stats.grok.se/ru/201506/Косякино,201506,55.34361111,8,other,Q1785116
ru,Лосиный Остров,11,37.7775,0.00027777777777778,,ru,ru|fr|en|zh|zh-hans|de|it|zh-hant|zh-hk|pl|es,http://stats.grok.se/ru/201506/Лосиный Остров,201506,55.86361111,743,other,Q1785861
ru,Крутицкое подворье,3,37.658333333333,0.00027777777777778,,ru,ru|de|en,http://stats.grok.se/ru/201506/Крутицкое подворье,201506,55.7275,573,other,Q1790299
ru,Курчатовский институт,11,37.476944,0.000010,,ru,ru|fr|en|nl|pt|de|hu|ar|uk|fi|ja,http://stats.grok.se/ru/201506/Курчатовский институт,201506,55.801389,438,education,Q1794356
ru,Храм Димитрия Солунского у Тверских ворот,2,37.605653,0.001,,ru,ru|nl,http://stats.grok.se/ru/201506/Храм Димитрия Солунского у Тверских ворот,201506,55.764178,41,religion,Q1814646
ru,Храм Благовещения Пресвятой Богородицы в Петровском парке,2,37.552880555556,0.0000027777777777778,,ru,ru|nl,http://stats.grok.se/ru/201506/Храм Благовещения Пресвятой Богородицы в Петровском парке,201506,55.795688888889,53,topo,Q1815287
ru,Государственный астрономический институт им. П. К. Штернберга,9,37.5428889,0.00002777777777778,,ru,ru|fr|en|pt|ca|de|hy|uk|ja,http://stats.grok.se/ru/201506/Государственный астрономический институт им. П. К. Штернберга,201506,55.70105557,45,education,Q1853182
ru,Стратегия-31,6,37.5958,0.015969339258379,,ru,ru|fr|en|nb|de|cs,http://stats.grok.se/ru/201506/Стратегия-31,201506,55.7694,427,other,Q1855586
ru,Храм великомученицы Параскевы Пятницы в Качалове,3,37.580758,0.000010,,ru,ru|nl|pl,http://stats.grok.se/ru/201506/Храм великомученицы Параскевы Пятницы в Качалове,201506,55.571528,19,religion,Q1890755
ru,Молодёжная,10,37.416666666667,0.00027777777777778,,ru,ru|fr|en|uk|pt|de|it|eo|cs|pl,http://stats.grok.se/ru/201506/Молодёжная,201506,55.740833333333,28,other,Q1943679
ru,Монино,9,38.183333333333,0.016666666666667,,ru,ru|fr|en|nl|de|it|uk|cs|pl,http://stats.grok.se/ru/201506/Монино,201506,55.833333333333,503,other,Q1944828
ru,Екатерининский дворец,6,37.695277777778,0.00027777777777778,,ru,ru|fr|en|nl|es|pl,http://stats.grok.se/ru/201506/Екатерининский дворец,201506,55.761388888889,207,other,Q1961082
ru,Чертаново Центральное,9,37.59527778,0.00027777777777778,,ru,en-gb|ru|fr|en|lb|pt|it|pt-br|en-ca,http://stats.grok.se/ru/201506/Чертаново Центральное,201506,55.61361111,92,other,Q1962823
ru,Проспект Вернадского,6,37.50027778,0.00027777777777778,,ru,ru|fr|en|pt|sco|it,http://stats.grok.se/ru/201506/Проспект Вернадского,201506,55.67694444,15,other,Q1962831
ru,Текстильщики,5,37.7282,0.015944806786163,,ru,ru|fr|en|it|pt,http://stats.grok.se/ru/201506/Текстильщики,201506,55.7094,22,other,Q1963126
ru,Нагорный район,5,37.61583333,0.00027777777777778,,ru,ru|fr|en|it|pt,http://stats.grok.se/ru/201506/Нагорный район,201506,55.66333333,8,adm,Q1963134
ru,Рязанский район,5,37.77027778,0.00027777777777778,,ru,ru|fr|en|it|pt,http://stats.grok.se/ru/201506/Рязанский район,201506,55.72333333,4,adm,Q1963165
ru,Бирюлёво Восточное,5,37.66388889,0.00027777777777778,,ru,ru|fr|en|it|pt,http://stats.grok.se/ru/201506/Бирюлёво Восточное,201506,55.58472222,335,other,Q1963176
ru,Нагатинский Затон,5,37.68722222,0.00027777777777778,,ru,ru|fr|en|it|pt,http://stats.grok.se/ru/201506/Нагатинский Затон,201506,55.68472222,9,other,Q1963453
ru,Молния,6,37.44861111,0.00027777777777778,,ru,ru|en|ca|de|fi|id,http://stats.grok.se/ru/201506/Молния,201506,55.84111111,4242,other,Q1970265
ru,Сатурн,11,38.22694444,0.00027777777777778,4312,ru,en-gb|ru|bg|pt|de|tr|it|en|pt-br|es|en-ca,http://stats.grok.se/ru/201506/Сатурн,201506,55.57722222,3850,other,Q1972472
ru,Бахметьевский гараж,4,37.607777777778,0.00027777777777778,,ru,ru|fr|en|ja,http://stats.grok.se/ru/201506/Бахметьевский гараж,201506,55.789166666667,264,other,Q1976364
ru,Кутафья башня,6,37.6128,0.0015962419873707,,ru,ru|en|de|mk|uk|pl,http://stats.grok.se/ru/201506/Кутафья башня,201506,55.7525,372,other,Q1981947
ru,Высотное здание на площади Красных Ворот,4,37.649444444444,0.00027777777777778,,ru,ru|fr|en|pl,http://stats.grok.se/ru/201506/Высотное здание на площади Красных Ворот,201506,55.769722222222,601,other,Q1992056
ru,Храм иконы Божией Матери «Утоли моя печали» в Марьине,3,37.7475,0.00027777777777778,,ru,ru|nl|pl,http://stats.grok.se/ru/201506/Храм иконы Божией Матери «Утоли моя печали» в Марьине,201506,55.648333333333,50,religion,Q1996405
ru,Волоколамская,11,37.382222222222,0.00027777777777778,,ru,ru|fr|en|uk|pt|de|it|eo|cs|ky|pl,http://stats.grok.se/ru/201506/Волоколамская,201506,55.835277777778,35,other,Q2006479
ru,Церковь Святого Владимира в Старых Садех,6,37.640497,0.000010,,ru,ru|fr|en|nl|it|pl,http://stats.grok.se/ru/201506/Церковь Святого Владимира в Старых Садех,201506,55.755297,68,religion,Q2012381
ru,Радиотелевизионная башня (Москва),3,37.489444444444,0.00027777777777778,,ru,ru|de|en,http://stats.grok.se/ru/201506/Радиотелевизионная башня (Москва),201506,55.781388888889,128,other,Q2017711
ru,Страстной монастырь,3,37.6058,0.15967741821601,,ru,ru|nl|pl,http://stats.grok.se/ru/201506/Страстной монастырь,201506,55.7655,205,religion,Q2018960
ru,ЦУМ,4,37.6197,0.01,,ru,ru|fr|en|it,http://stats.grok.se/ru/201506/ЦУМ,201506,55.7607,60,other,Q2020019
ru,Храм Покрова Богородицы в Измайлове,4,37.765119,0.000010,,ru,ru|nl|it|pl,http://stats.grok.se/ru/201506/Храм Покрова Богородицы в Измайлове,201506,55.791322,121,religion,Q2025144
ru,Авиакатастрофа Ту-204 во Внуково 29 декабря 2012 года,9,37.255197,0.00000277777777778,,ru,ru|fr|en|zh|de|ko|pl|id|es,http://stats.grok.se/ru/201506/Авиакатастрофа Ту-204 во Внуково 29 декабря 2012 года,201506,55.583985,94,other,Q2033524
ru,Храм Воскресения Христова в Кадашах,4,37.622453,0.000010,,ru,ru|en|nl|pl,http://stats.grok.se/ru/201506/Храм Воскресения Христова в Кадашах,201506,55.743231,108,religion,Q2035918
ru,Церковь Александра Невского в Кожухове,2,37.668611111111,0.00027777777777778,,ru,ru|nl,http://stats.grok.se/ru/201506/Церковь Александра Невского в Кожухове,201506,55.7025,45,religion,Q2041744
ru,Посольство Республики Кипр в Москве,4,37.59527778,0.00027777777777778,,ru,ru|en|tr|es,http://stats.grok.se/ru/201506/Посольство Республики Кипр в Москве,201506,55.75388889,0,other,Q2066103
ru,Могила Неизвестного Солдата,17,37.616111111111,0.00027777777777778,,ru,ru|eo|en|zh|sr-ec|sr|sr-el|fr|mk|da|sk|fa|es|it|sv|pl|he,http://stats.grok.se/ru/201506/Могила Неизвестного Солдата,201506,55.754722222222,548,other,Q2075146
ru,Храм Никиты Мученика на Старой Басманной,2,37.661822,0.000010,,ru,ru|nl,http://stats.grok.se/ru/201506/Храм Никиты Мученика на Старой Басманной,201506,55.765669,129,religion,Q2100785
ru,Московский трамвай,11,37.617,0.01,,ru,ru|fr|en|nl|de|it|de-ch|sk|be-tarask|cs|pl,http://stats.grok.se/ru/201506/Московский трамвай,201506,55.75,837,other,Q2142421
ru,Храм Петра и Павла в Ясеневе,2,37.549166666667,0.00027777777777778,,ru,ru|nl,http://stats.grok.se/ru/201506/Храм Петра и Павла в Ясеневе,201506,55.6,139,religion,Q2152347
ru,Музей и общественный центр имени А. Д. Сахарова,2,37.65879389,0.00000277777777778,,ru,ru|de,http://stats.grok.se/ru/201506/Музей и общественный центр имени А. Д. Сахарова,201506,55.751158,10,other,Q2210331
ru,Церковь Климента папы Римского,9,37.6273,0.000010,,ru,ru|en|nl|pt|it|sk|es|uk|pl,http://stats.grok.se/ru/201506/Церковь Климента папы Римского,201506,55.740661,74,religion,Q2225340
ru,Симонов монастырь,12,37.656597222222,,,ru,ru|eo|en|nl|pt|el|sr|ca|pl|ja|es|he,http://stats.grok.se/ru/201506/Симонов монастырь,201506,55.713769444444,418,religion,Q2234567
ru,Храм Николая Чудотворца в Хамовниках,5,37.590869,0.000010,,ru,ru|en|nl|it|pl,http://stats.grok.se/ru/201506/Храм Николая Чудотворца в Хамовниках,201506,55.731464,184,religion,Q2247065
ru,Манежная площадь,15,37.614888888889,0.000027777777777778,,ru,ru|eo|en|zh|zh-hans|ca|fr|zh-hant|zh-hk|es|uk|it|sv|ja|pl,http://stats.grok.se/ru/201506/Манежная площадь,201506,55.755972222222,25,topo,Q2253418
ru,Ленинградская,8,37.651666666667,,,ru,ru|fr|en|nl|it|es|ja|pl,http://stats.grok.se/ru/201506/Ленинградская,201506,55.773888888889,48,other,Q2269257
ru,Монумент «Покорителям космоса»,14,37.639622222222,0.0000027777777777778,,ru,ru|fr|en|sr-ec|pt|sr|sr-el|de|it|es|cs|ja|pl|he,http://stats.grok.se/ru/201506/Монумент «Покорителям космоса»,201506,55.822694444444,114,other,Q2299609
ru,Грановитая палата,11,37.616666666667,,,ru,ru|fr|en|pt|ca|it|sk|eo|cs|nb|es,http://stats.grok.se/ru/201506/Грановитая палата,201506,55.750277777778,690,other,Q2307647
ru,Церковь святых Константина и Елены,2,37.621947,0.000010,,ru,ru|nl,http://stats.grok.se/ru/201506/Церковь святых Константина и Елены,201506,55.749961,10,religion,Q2319798
ru,Улица Петровка,8,37.615555555556,0.00027777777777778,,ru,ru|en|zh|zh-hans|it|zh-hant|zh-hk|pl,http://stats.grok.se/ru/201506/Улица Петровка,201506,55.766111111111,97,topo,Q2320137
ru,Каширская,11,37.648611111111,0.00027777777777778,,ru,ru|eo|en|pt|fr|it|es|uk|cs|sv|pl,http://stats.grok.se/ru/201506/Каширская,201506,55.655,5,other,Q2329927
ru,Московский государственный университет геодезии и картографии,6,37.66184444,0.000010,,ru,ru|fr|en|ba|eo|he,http://stats.grok.se/ru/201506/Московский государственный университет геодезии и картографии,201506,55.76375278,321,education,Q2333455
ru,Митино,15,37.361944,0.0001,,ru,ru|fr|en|uk|pt|kk-arab|it|kk-cyrl|kk|kk-latn|es|eo|cs|ky|pl,http://stats.grok.se/ru/201506/Митино,201506,55.845556,78,other,Q2346375
ru,Кузьминки,5,37.76972222,0.00027777777777778,,ru,ru|fr|en|it|pt,http://stats.grok.se/ru/201506/Кузьминки,201506,55.69888889,57,other,Q2360885
ru,Молжаниновский район,7,37.38916667,0.00027777777777778,,ru,ru|sco|bg|pt|it|fr|en,http://stats.grok.se/ru/201506/Молжаниновский район,201506,55.93083333,165,adm,Q2361002
ru,Бутырский район,7,37.58583333,0.00027777777777778,,ru,ru|sco|bg|pt|it|fr|en,http://stats.grok.se/ru/201506/Бутырский район,201506,55.81611111,148,adm,Q2362908
ru,Соколиная Гора,7,37.73111111,0.00027777777777778,,ru,ru|sco|bg|pt|it|fr|en,http://stats.grok.se/ru/201506/Соколиная Гора,201506,55.76972222,4,other,Q2364971
ru,Академический район,6,37.57305556,0.00027777777777778,,ru,ru|fr|en|pt|it|uk,http://stats.grok.se/ru/201506/Академический район,201506,55.68972222,3,adm,Q2366010
ru,Новогиреево,7,37.81333333,0.00027777777777778,,ru,ru|eo|bg|pt|it|fr|en,http://stats.grok.se/ru/201506/Новогиреево,201506,55.75,27,other,Q2366899
ru,Физический факультет МГУ,6,37.52944444,0.00027777777777778,,ru,ru|en|kk|uk|sl|cv,http://stats.grok.se/ru/201506/Физический факультет МГУ,201506,55.7,345,other,Q2367144
ru,Печатники,7,37.71722222,0.00027777777777778,,ru,ru|fr|en|pt|it|fi|et,http://stats.grok.se/ru/201506/Печатники,201506,55.70111111,9,other,Q2367394
ru,Войковский район,7,37.5028,0.015988744677913,,ru,ru|sco|bg|pt|it|fr|en,http://stats.grok.se/ru/201506/Войковский район,201506,55.8167,120,adm,Q2367430
ru,Северное Тушино,9,37.44638889,0.00027777777777778,,ru,ru|eo|bg|pt|de|it|sco|fr|en,http://stats.grok.se/ru/201506/Северное Тушино,201506,55.85861111,156,other,Q2367469
ru,Северное Медведково,7,37.65527778,0.00027777777777778,,ru,ru|sco|bg|pt|it|fr|en,http://stats.grok.se/ru/201506/Северное Медведково,201506,55.88888889,155,other,Q2367583
ru,Улица Горчакова,8,37.530555555556,0.00027777777777778,,ru,ru|fr|en|uk|pt|it|eo|cs,http://stats.grok.se/ru/201506/Улица Горчакова,201506,55.541666666667,31,topo,Q2369705
ru,Поклонная гора,6,37.50666667,0.00027777777777778,,ru,ru|fr|en|sr|it|pl,http://stats.grok.se/ru/201506/Поклонная гора,201506,55.73166667,665,other,Q2370140
ru,Церковь Троицы Живоначальной в Хохлах,3,37.643981,0.000010,,ru,ru|fr|nl,http://stats.grok.se/ru/201506/Церковь Троицы Живоначальной в Хохлах,201506,55.756656,93,religion,Q2376290
ru,Башня 2000,5,37.5461,0.15959924157821,,ru,ru|eo|nl|pl|pt,http://stats.grok.se/ru/201506/Башня 2000,201506,55.7464,616,other,Q2379770
ru,Раменское,7,38.151666666667,0.00027777777777778,,ru,ru|en|de|fa|uk|fi|ja,http://stats.grok.se/ru/201506/Раменское,201506,55.553333333333,1008,other,Q2388744
ru,Спасская башня,14,37.6214,0.015962419873707,,ru,ru|en|sr-ec|be|sr|sr-el|sv|mk|sk|cs|fi|cv|pl|he,http://stats.grok.se/ru/201506/Спасская башня,201506,55.7525,903,other,Q2416732
ru,Здание Центросоюза,6,37.641125,0.00027777777777778,,ru,ru|en|pt|it|ja|pl,http://stats.grok.se/ru/201506/Здание Центросоюза,201506,55.767611111111,398,other,Q2454624
ru,Химкинский лес,9,37.44666667,0.00027777777777778,,ru,ru|fr|en|ca|uk|cs|et|es|he,http://stats.grok.se/ru/201506/Химкинский лес,201506,55.935,202,other,Q2462206
ru,Китай-город,11,37.6325,0.00027777777777778,,ru,ru|fr|en|uk|pt|hr|it|eo|cs|fi|pl,http://stats.grok.se/ru/201506/Китай-город,201506,55.755555555556,1650,other,Q2463121
ru,Эдельвейс,7,37.479938888889,0.0000027777777777778,,ru,ru|fr|en|nl|it|fi|pl,http://stats.grok.se/ru/201506/Эдельвейс,201506,55.727416666667,986,other,Q2491710
ru,Комплекс «Imperia Tower»,11,37.540833333333,,,ru,ru|fr|en|nl|pt|ml|sv|it|es|eo|pl,http://stats.grok.se/ru/201506/Комплекс «Imperia Tower»,201506,55.7475,60,other,Q2493262
ru,Министерство общего машиностроения СССР,8,37.59083333,0.0001,,ru,ru|fr|en|pt|hu|uk|cs|pl,http://stats.grok.se/ru/201506/Министерство общего машиностроения СССР,201506,55.7775,98,other,Q2509846
ru,Храм Рождества Пресвятой Богородицы в Бутырской слободе,2,37.584653,0.000010,,ru,ru|nl,http://stats.grok.se/ru/201506/Храм Рождества Пресвятой Богородицы в Бутырской слободе,201506,55.800903,22,religion,Q2510168
ru,Солнечногорский район,11,36.98333333,0.016666666666667,,ru,ru|sco|en|vi|de|it|hy|eo|cs|pnb|cv,http://stats.grok.se/ru/201506/Солнечногорский район,201506,56.18333333,333,adm,Q2537742
ru,Выставочная,9,37.538055555556,0.00027777777777778,,ru,ru|eo|en|nl|pt|it|uk|cs|pl,http://stats.grok.se/ru/201506/Выставочная,201506,55.748611111111,13,other,Q2541674
ru,Первомайская,8,37.799444444444,0.00027777777777778,,ru,ru|eo|en|pt|it|uk|cs|pl,http://stats.grok.se/ru/201506/Первомайская,201506,55.794444444444,18,other,Q2547827
ru,Домодедовская,10,37.719722222222,0.00027777777777778,,ru,ru|fr|en|uk|pt|it|sv|eo|cs|pl,http://stats.grok.se/ru/201506/Домодедовская,201506,55.610833333333,10,other,Q2547848
ru,Багратионовская,8,37.4975,0.00027777777777778,,ru,ru|eo|en|pt|it|uk|cs|pl,http://stats.grok.se/ru/201506/Багратионовская,201506,55.743888888889,7,other,Q2547853
ru,Войковская,9,37.4975,0.00027777777777778,,ru,ru|fr|en|uk|pt|it|eo|cs|pl,http://stats.grok.se/ru/201506/Войковская,201506,55.819166666667,21,other,Q2547861
ru,Аэропорт,12,37.532222222222,0.00027777777777778,,ru,ru|fr|en|nl|uk|pt|it|sv|eo|cs|pl|ba,http://stats.grok.se/ru/201506/Аэропорт,201506,55.8,1394,other,Q2547885
ru,Фили,10,37.514444444444,0.00027777777777778,,ru,ru|fr|en|nl|uk|pt|it|eo|cs|pl,http://stats.grok.se/ru/201506/Фили,201506,55.746111111111,275,other,Q2547892
ru,Щукинская,8,37.464166666667,0.00027777777777778,,ru,ru|eo|en|pt|it|uk|cs|pl,http://stats.grok.se/ru/201506/Щукинская,201506,55.808611111111,13,other,Q2548953
ru,Беговая,8,37.547063888889,0.0000027777777777778,,ru,ru|eo|en|pt|it|uk|cs|pl,http://stats.grok.se/ru/201506/Беговая,201506,55.773611111111,42,other,Q2549465
ru,Кузнецкий мост,8,37.625812,0.0000010,,ru,ru|eo|en|pt|it|uk|cs|pl,http://stats.grok.se/ru/201506/Кузнецкий мост,201506,55.760575,24,topo,Q2549598
ru,Крестьянская застава,8,37.665833333333,0.00027777777777778,,ru,ru|eo|en|pt|it|uk|cs|pl,http://stats.grok.se/ru/201506/Крестьянская застава,201506,55.732222222222,5,other,Q2551037
ru,Дубровка,10,37.676666666667,0.00027777777777778,,ru,ru|fr|en|nl|pt|it|uk|cs|eo|pl,http://stats.grok.se/ru/201506/Дубровка,201506,55.718055555556,162,other,Q2551380
ru,Выхино,8,37.817194444444,0.0000027777777777778,,ru,ru|eo|en|pt|it|uk|cs|pl,http://stats.grok.se/ru/201506/Выхино,201506,55.716275,99,other,Q2551396
ru,Соборная площадь,11,37.61750001,0.00027777777777778,,ru,ru|fr|en|zh|pt|zh-hans|it|mk|zh-hant|zh-hk|he,http://stats.grok.se/ru/201506/Соборная площадь,201506,55.75055557,26,topo,Q2570082
ru,Сходня,6,37.313888888889,0.00027777777777778,,ru,ru|en|zh|nn|sk|nl,http://stats.grok.se/ru/201506/Сходня,201506,55.951388888889,235,other,Q2592290
ru,Вымпел,11,37.44,0.015992155846896,,ru,ru|fr|en|de|sv|ja|it|fi|id|es|he,http://stats.grok.se/ru/201506/Вымпел,201506,55.825,367,other,Q2593772
ru,Октябрьская,10,37.611944444444,0.00027777777777778,,ru,ru|fr|en|uk|pt|it|sv|eo|cs|pl,http://stats.grok.se/ru/201506/Октябрьская,201506,55.730277777778,49,other,Q2602974
ru,Арбатская,11,37.606111111111,0.00027777777777778,,ru,ru|fr|en|uk|pt|it|sv|eo|cs|ur|pl,http://stats.grok.se/ru/201506/Арбатская,201506,55.752222222222,34,other,Q2604365
ru,Варшавская,10,37.619444444444,0.00027777777777778,,ru,ru|fr|en|uk|pt|sv|it|eo|cs|es,http://stats.grok.se/ru/201506/Варшавская,201506,55.653333333333,5,other,Q2604373
ru,Братиславская,9,37.750555555556,0.00027777777777778,,ru,ru|eo|en|pt|it|sk|uk|cs|pl,http://stats.grok.se/ru/201506/Братиславская,201506,55.659722222222,6,other,Q2605871
ru,Пехорка,14,37.947222222222,0.00027777777777778,,ru,ru|eo|bg|zh|nn|zh-hans|nb|ce|zh-hant|zh-hk|en|hy|da|cv,http://stats.grok.se/ru/201506/Пехорка,201506,55.804166666667,135,other,Q2623421
ru,МЧС России,10,37.62277778,0.00000277777777778,8437,ru,en-gb|ru|fr|en|ba|tt|fi|en-ca|ja|he,http://stats.grok.se/ru/201506/МЧС России,201506,55.75968889,2645,other,Q2624171
ru,Министерство здравоохранения Российской Федерации,10,37.61860278,0.00000277777777778,,ru,ru|en|zh|ba|zh-hans|zh-hant|zh-hk|da|ja|he,http://stats.grok.se/ru/201506/Министерство здравоохранения Российской Федерации,201506,55.76526111,1368,other,Q2624248
ru,Щёлковский район,9,37.98111111,0.00027777777777778,,ru,ru|sco|en|vi|de|it|hy|pnb|cv,http://stats.grok.se/ru/201506/Щёлковский район,201506,55.91694444,363,adm,Q2624366
ru,Строгино,8,37.3944,0.015977537430393,,ru,ru|sco|bg|pt|it|fr|en|cs,http://stats.grok.se/ru/201506/Строгино,201506,55.7894,40,other,Q2625675
ru,Мещанский район,7,37.6275,0.00027777777777778,,ru,ru|sco|bg|pt|it|fr|en,http://stats.grok.se/ru/201506/Мещанский район,201506,55.775833333333,239,adm,Q2626320
ru,Западное Дегунино,8,37.536667,0.000010,,ru,ru|sco|bg|pt|it|fr|fa|en,http://stats.grok.se/ru/201506/Западное Дегунино,201506,55.865278,131,other,Q2626861
ru,Павлово-Посадский район,9,38.65,0.016666666666667,,ru,ru|sco|en|vi|de|it|ar|hy|pnb,http://stats.grok.se/ru/201506/Павлово-Посадский район,201506,55.78333333,262,adm,Q2627343
ru,Ленинский район,10,37.7,0.016666666666667,,ru,ru|sco|en|zh|de|it|ar|hy|pnb|cv,http://stats.grok.se/ru/201506/Ленинский район,201506,55.55,110,adm,Q2627647
ru,Московская Биржа,20,37.606111,0.00027777777777778,,ru,en-gb|ru|fr|en|nl|uk|pt|sr|sr-el|de|it|ja|fa|pt-br|io|fi|da|sr-ec|id|en-ca,http://stats.grok.se/ru/201506/Московская Биржа,201506,55.755278,35,other,Q2632892
ru,Узкое,6,37.539,0.01,,ru,ru|fr|bg|it|da|en,http://stats.grok.se/ru/201506/Узкое,201506,55.6233,169,other,Q2635840
ru,Букет лилий,6,37.6133,0.001596119235231,,ru,ru|en|nl|it|uk|he,http://stats.grok.se/ru/201506/Букет лилий,201506,55.7495,0,other,Q2637064
ru,Храм Покрова Пресвятой Богородицы в Красном селе,2,37.668722,0.000010,,ru,ru|nl,http://stats.grok.se/ru/201506/Храм Покрова Пресвятой Богородицы в Красном селе,201506,55.777189,65,religion,Q2672527
ru,Каховская,9,37.598333333333,0.00027777777777778,,ru,ru|fr|en|uk|pt|it|eo|cs|es,http://stats.grok.se/ru/201506/Каховская,201506,55.653055555556,25,other,Q2720409
ru,Водный стадион,9,37.486388888889,0.00027777777777778,,ru,ru|fr|en|uk|pt|it|eo|cs|pl,http://stats.grok.se/ru/201506/Водный стадион,201506,55.839722222222,10,other,Q2721157
ru,Царицыно,11,37.669166666667,0.00027777777777778,,ru,ru|fr|en|uk|pt|it|sv|eo|cs|pl|ba,http://stats.grok.se/ru/201506/Царицыно,201506,55.621666666667,172,other,Q2721285
ru,Медведково,9,37.661388888889,0.00027777777777778,,ru,ru|fr|en|uk|pt|it|eo|cs|pl,http://stats.grok.se/ru/201506/Медведково,201506,55.887222222222,55,other,Q2721373
ru,Бабушкинская,9,37.664444444444,0.00027777777777778,,ru,ru|fr|en|uk|pt|it|eo|cs|pl,http://stats.grok.se/ru/201506/Бабушкинская,201506,55.869444444444,10,other,Q2721566
ru,Трагедия в Лужниках,10,37.55361111,0.00027777777777778,,ru,ru|fr|en|nl|sr|sv|it|ja|es|he,http://stats.grok.se/ru/201506/Трагедия в Лужниках,201506,55.71583333,2,other,Q2735551
ru,Российская академия народного хозяйства и государственной службы при Президенте Российской Федерации,5,37.4794,0.15927607831542,,ru,ru|fr|en|pl|uk,http://stats.grok.se/ru/201506/Российская академия народного хозяйства и государственной службы при Президенте Российской Федерации,201506,55.6672,1042,education,Q2822458
ru,Посольство Монголии в Москве,3,37.588528,0.00000277777777778,,ru,ru|fr|en,http://stats.grok.se/ru/201506/Посольство Монголии в Москве,201506,55.754639,4,other,Q2841827
ru,Федеральное военное мемориальное кладбище,5,37.675277777778,0.00027777777777778,,ru,ru|en|oc|pl|he,http://stats.grok.se/ru/201506/Федеральное военное мемориальное кладбище,201506,55.927222222222,433,other,Q2895767
ru,Федеральная служба по регулированию алкогольного рынка,4,37.59002778,0.000010,,ru,ru|en|ba|he,http://stats.grok.se/ru/201506/Федеральная служба по регулированию алкогольного рынка,201506,55.77705833,232,other,Q2896023
ru,Парк искусств,5,37.60974,0.000010,,ru,ru|eo|en|de|he,http://stats.grok.se/ru/201506/Парк искусств,201506,55.73671,38,topo,Q2897273
ru,Кремлёвская стена,4,37.61666667,0.00027777777777778,,ru,ru|en|mk|he,http://stats.grok.se/ru/201506/Кремлёвская стена,201506,55.74916667,521,other,Q2898604
ru,Владимирская церковь,2,38.058083333333,0.000027777777777778,,ru,ru|nl,http://stats.grok.se/ru/201506/Владимирская церковь,201506,55.610083333333,22,religion,Q2914965
ru,Страстной бульвар,3,37.611388888889,0.00027777777777778,,ru,ru|fr|en,http://stats.grok.se/ru/201506/Страстной бульвар,201506,55.7675,157,other,Q2922035
en,Kauchuk Factory Club,3,37.57370278,0.00000277777777778,,en,fr|en|ja,http://stats.grok.se/en/201506/Kauchuk Factory Club,201506,55.73583333,71,other,Q2979941
ru,Ленинградский проспект,10,37.548333333333,0.00027777777777778,,ru,ru|en|zh|be|zh-hans|zh-hant|zh-hk|lt|be-tarask|cs,http://stats.grok.se/ru/201506/Ленинградский проспект,201506,55.792777777778,341,other,Q2995182
ru,Тимирязевская,3,37.578888888889,0.00027777777777778,,ru,ru|en|ja,http://stats.grok.se/ru/201506/Тимирязевская,201506,55.818888888889,12,other,Q3031151
ru,Телецентр,2,37.608888888889,0.00027777777777778,,ru,ru|en,http://stats.grok.se/ru/201506/Телецентр,201506,55.821666666667,34,other,Q3031207
ru,Киевская,10,37.565,0.00027777777777778,,ru,ru|fr|en|uk|pt|it|sv|eo|fi|pl,http://stats.grok.se/ru/201506/Киевская,201506,55.743888888889,46,other,Q3196497
en,Minor Arena,4,37.54888889,0.00027777777777778,,en,sk|sr|fr|en,http://stats.grok.se/en/201506/Minor Arena,201506,55.71833333,81,other,Q3263913
ru,Проспект Мира,7,37.638055555556,0.00027777777777778,,ru,ru|fr|zh|zh-hans|zh-hant|zh-hk|lt,http://stats.grok.se/ru/201506/Проспект Мира,201506,55.813333333333,40,other,Q3271391
ru,Дом-коммуна на улице Орджоникидзе,3,37.59583333,0.00027777777777778,,ru,ru|fr|en,http://stats.grok.se/ru/201506/Дом-коммуна на улице Орджоникидзе,201506,55.71111111,218,other,Q3279128
ru,Петровский путевой дворец,2,37.5526,0.0000010,,ru,ru|fr,http://stats.grok.se/ru/201506/Петровский путевой дворец,201506,55.793658,574,other,Q3360905
ru,Дом Союзов,8,37.6164,0.00000277777777778,,ru,ru|en|zh|zh-hans|de|zh-hant|zh-hk|hy,http://stats.grok.se/ru/201506/Дом Союзов,201506,55.7589,290,other,Q3408535
ru,Софийская набережная,2,37.6196,0.01,,ru,ru|fr,http://stats.grok.se/ru/201506/Софийская набережная,201506,55.7481,134,other,Q3412663
ru,Пушкинский (Андреевский) мост,2,37.591666666667,0.00027777777777778,,ru,hr|ru,http://stats.grok.se/ru/201506/Пушкинский (Андреевский) мост,201506,55.724722222222,0,topo,Q3447008
ru,Улица Солянка,3,37.639722222222,0.00027777777777778,,ru,ru|fr|cv,http://stats.grok.se/ru/201506/Улица Солянка,201506,55.752777777778,48,topo,Q3450078
ru,Свиблово (усадьба),3,37.63194444,0.00027777777777778,,ru,ru|fr|uk,http://stats.grok.se/ru/201506/Свиблово (усадьба),201506,55.85194444,89,other,Q3506346
ru,Троице-Лыково (станция метро),3,37.400555555556,0.00027777777777778,,ru,ru|fr|pl,http://stats.grok.se/ru/201506/Троице-Лыково (станция метро),201506,55.791944444444,386,other,Q3540224
ru,"Церковь Зачатия Анны, что в Углу",2,37.63095,0.000010,,ru,ru|nl,"http://stats.grok.se/ru/201506/Церковь Зачатия Анны, что в Углу",201506,55.750117,82,religion,Q3541021
ru,Церковь Николая Чудотворца в Подкопаях,2,37.641666666667,0.00027777777777778,,ru,ru|fr,http://stats.grok.se/ru/201506/Церковь Николая Чудотворца в Подкопаях,201506,55.753055555556,61,religion,Q3583328
en,Monino Airfield,3,38.17,0.00027777777777778,,en,fa|en|tg,http://stats.grok.se/en/201506/Monino Airfield,201506,55.83666667,82,other,Q3612744
ru,Саввино-Сторожевский монастырь,4,36.816111111111,0.00027777777777778,,ru,ru|bg|en|uk,http://stats.grok.se/ru/201506/Саввино-Сторожевский монастырь,201506,55.727777777778,382,religion,Q3656882
ru,Хорлово,3,38.8169,7.8952856070255,,ru,ru|it|ce,http://stats.grok.se/ru/201506/Хорлово,201506,55.3269,12,other,Q3675419
ru,Астрокосмический центр ФИАН,3,37.5334,0.015922400124772,,ru,ru|pnb|en,http://stats.grok.se/ru/201506/Астрокосмический центр ФИАН,201506,55.6544,49,other,Q3695634
ru,Алмаз-Антей,3,37.507818,0.000010,,ru,ru|en|id,http://stats.grok.se/ru/201506/Алмаз-Антей,201506,55.80918,4376,other,Q3704981
ru,Морской научно-исследовательский институт радиоэлектроники «Альтаир»,3,37.72305556,0.000010,,ru,ru|en|id,http://stats.grok.se/ru/201506/Морской научно-исследовательский институт радиоэлектроники «Альтаир»,201506,55.74138889,221,education,Q3704987
ru,Посёлок имени Цюрупы,3,38.640833333333,0.00027777777777778,,ru,ru|hy|it,http://stats.grok.se/ru/201506/Посёлок имени Цюрупы,201506,55.487222222222,70,adm,Q3796612
ru,Посёлок имени Воровского (Московская область),3,38.341944444444,0.00027777777777778,,ru,ru|hy|it,http://stats.grok.se/ru/201506/Посёлок имени Воровского (Московская область),201506,55.726111111111,150,adm,Q3796613
ru,Кратово (Московская область),4,38.180277777778,0.00027777777777778,,ru,ru|hy|en|it,http://stats.grok.se/ru/201506/Кратово (Московская область),201506,55.591111111111,351,adm,Q3816849
ru,Лесной Городок,3,37.204166666667,0.00027777777777778,,ru,ru|it|ce,http://stats.grok.se/ru/201506/Лесной Городок,201506,55.641666666667,159,other,Q3830924
ru,Пироговский,4,37.743055555556,0.00027777777777778,,ru,ru|hy|it|ce,http://stats.grok.se/ru/201506/Пироговский,201506,55.981388888889,93,other,Q3905640
ru,Площадь Новодевичьего Монастыря,3,37.560833333333,0.000027777777777778,,ru,be|be-tarask|ru,http://stats.grok.se/ru/201506/Площадь Новодевичьего Монастыря,201506,55.726777777778,43,topo,Q3919895
ru,Посольство Японии в Москве,8,37.6417,0.00000277777777778,,ru,ru|en|zh|zh-hans|de|zh-hant|zh-hk|ja,http://stats.grok.se/ru/201506/Посольство Японии в Москве,201506,55.7778,14,other,Q3936326
ru,Федеральная служба железнодорожных войск Российской Федерации,2,37.66833333,0.000010,,ru,ru|it,http://stats.grok.se/ru/201506/Федеральная служба железнодорожных войск Российской Федерации,201506,55.77583333,63,other,Q3958078
ru,Черкизово (Пушкинский район),3,37.797777777778,0.00027777777777778,,ru,ru|hy|it,http://stats.grok.se/ru/201506/Черкизово (Пушкинский район),201506,55.966111111111,68,adm,Q4025590
ru,15-й автобусный парк,1,37.41805556,0.000010,,ru,ru,http://stats.grok.se/ru/201506/15-й автобусный парк,201506,55.82972222,81,topo,Q4028883
ru,17-й автобусный парк,1,37.61944444,0.000010,,ru,ru,http://stats.grok.se/ru/201506/17-й автобусный парк,201506,55.61055556,81,topo,Q4029129
ru,177 км (платформа БМО),1,36.824755555556,0.0000027777777777778,,ru,ru,http://stats.grok.se/ru/201506/177 км (платформа БМО),201506,55.813302777778,21,other,Q4029230
ru,221 км (платформа БМО),1,36.701666666667,0.00027777777777778,,ru,ru,http://stats.grok.se/ru/201506/221 км (платформа БМО),201506,55.465555555556,16,other,Q4030184
ru,250 км (платформа БМО),1,36.976111111111,0.00027777777777778,,ru,ru,http://stats.grok.se/ru/201506/250 км (платформа БМО),201506,55.319722222222,26,other,Q4030353
ru,5-й автобусный парк,1,37.50361111,0.000010,,ru,ru,http://stats.grok.se/ru/201506/5-й автобусный парк,201506,55.77222222,72,topo,Q4031590
ru,7-й автобусный парк,1,37.56194444,0.000010,,ru,ru,http://stats.grok.se/ru/201506/7-й автобусный парк,201506,55.85166667,67,topo,Q4032190
ru,7-й троллейбусный парк,1,37.63805556,0.000010,,ru,ru,http://stats.grok.se/ru/201506/7-й троллейбусный парк,201506,55.67833333,83,topo,Q4032208
ru,Crocus City Hall,4,37.39019,0.000010,,ru,ru|en|ja|es,http://stats.grok.se/ru/201506/Crocus City Hall,201506,55.82583,911,other,Q4036690
ru,Mirax Plaza,5,37.531235,0.0000010,,ru,en-gb|ru|en|pl|en-ca,http://stats.grok.se/ru/201506/Mirax Plaza,201506,55.741798,274,other,Q4044349
ru,Аварийная посадка Ту-154 в Москве 4 декабря 2010 года,4,37.89972222,0.00027777777777778,,ru,ru|en|ar|uk,http://stats.grok.se/ru/201506/Аварийная посадка Ту-154 в Москве 4 декабря 2010 года,201506,55.42833333,65,other,Q4055381
ru,Авиамоторная улица,1,37.716388888889,0.00027777777777778,,ru,ru,http://stats.grok.se/ru/201506/Авиамоторная улица,201506,55.752777777778,117,topo,Q4055794
ru,Автомоторная улица,1,37.536111111111,0.00027777777777778,,ru,ru,http://stats.grok.se/ru/201506/Автомоторная улица,201506,55.849722222222,41,topo,Q4056369
ru,Агафоново,2,37.646219444444,0.0000027777777777778,,ru,ru|uk,http://stats.grok.se/ru/201506/Агафоново,201506,55.460905555556,11,other,Q4056761
ru,Агрогородок,1,36.961111111111,0.00027777777777778,,ru,ru,http://stats.grok.se/ru/201506/Агрогородок,201506,55.919444444444,172,other,Q4057098
ru,Азовская улица (Москва),1,37.598611111111,0.00027777777777778,,ru,ru,http://stats.grok.se/ru/201506/Азовская улица (Москва),201506,55.656944444444,48,topo,Q4058412
ru,Акулово (поселение Клёновское),1,37.302416666667,0.0000027777777777778,,ru,ru,http://stats.grok.se/ru/201506/Акулово (поселение Клёновское),201506,55.347486111111,34,other,Q4060224
ru,Алабушево (платформа),1,37.140833333333,0.00027777777777778,,ru,ru,http://stats.grok.se/ru/201506/Алабушево (платформа),201506,56.008055555556,76,other,Q4060398
ru,Александровка,1,37.216086111111,0.0000027777777777778,,ru,ru,http://stats.grok.se/ru/201506/Александровка,201506,55.75195,238,other,Q4061259
ru,Александрово,1,36.684722222222,0.00027777777777778,,ru,ru,http://stats.grok.se/ru/201506/Александрово,201506,55.884722222222,17,other,Q4061379
ru,Аллея Витте,1,37.54075,0.000027777777777778,,ru,ru,http://stats.grok.se/ru/201506/Аллея Витте,201506,55.548527777778,26,other,Q4062605
ru,Аллея Дорога Жизни,1,37.411769444444,0.0000027777777777778,,ru,ru,http://stats.grok.se/ru/201506/Аллея Дорога Жизни,201506,55.813938888889,19,other,Q4062615
ru,Аллея Пролетарского Входа,1,37.751893,0.0000010,,ru,ru,http://stats.grok.se/ru/201506/Аллея Пролетарского Входа,201506,55.76512,9,other,Q4062624
ru,Аллея имени Алисы Селезнёвой,1,37.48520833,0.000010,,ru,ru,http://stats.grok.se/ru/201506/Аллея имени Алисы Селезнёвой,201506,55.85376389,180,other,Q4062632
ru,Алтуфьевское кладбище,1,37.594363888889,0.0000027777777777778,,ru,ru,http://stats.grok.se/ru/201506/Алтуфьевское кладбище,201506,55.907625,54,other,Q4062997
ru,Алтухово,1,37.562441666667,0.0000027777777777778,,ru,ru,http://stats.grok.se/ru/201506/Алтухово,201506,55.317302777778,10,other,Q4063012
ru,Аминьевское шоссе,1,37.455,0.00027777777777778,,ru,ru,http://stats.grok.se/ru/201506/Аминьевское шоссе,201506,55.708611111111,66,other,Q4064337
ru,Анадырский проезд,1,37.696111111111,0.00027777777777778,,ru,ru,http://stats.grok.se/ru/201506/Анадырский проезд,201506,55.871388888889,40,topo,Q4064714
ru,Ананово,2,36.748611111111,0.00027777777777778,,ru,ru|ce,http://stats.grok.se/ru/201506/Ананово,201506,55.998611111111,23,other,Q4064791
ru,Ангарские пруды,1,37.531111111111,0.00027777777777778,,ru,ru,http://stats.grok.se/ru/201506/Ангарские пруды,201506,55.88,47,other,Q4065060
ru,Ангстрем (компания),5,37.21388889,0.00027777777777778,,ru,cs|ru|en|en-gb|en-ca,http://stats.grok.se/ru/201506/Ангстрем (компания),201506,55.98222222,348,other,Q4065218
ru,Андреевское (Ленинский район),1,37.925,0.00027777777777778,,ru,ru,http://stats.grok.se/ru/201506/Андреевское (Ленинский район),201506,55.554166666667,37,adm,Q4065766
ru,Андроновка (станция),1,37.734444444444,0.00027777777777778,,ru,ru,http://stats.grok.se/ru/201506/Андроновка (станция),201506,55.741111111111,89,other,Q4066026
ru,Андроньевская набережная,1,37.669166666667,0.00027777777777778,,ru,ru,http://stats.grok.se/ru/201506/Андроньевская набережная,201506,55.749722222222,26,other,Q4066051
ru,Андроньевская площадь,1,37.668888888889,0.00027777777777778,,ru,ru,http://stats.grok.se/ru/201506/Андроньевская площадь,201506,55.746388888889,53,topo,Q4066052
ru,Аникеевка (платформа),1,37.27,0.00027777777777778,,ru,ru,http://stats.grok.se/ru/201506/Аникеевка (платформа),201506,55.831944444444,37,other,Q4066234
ru,Аносино,2,36.998611111111,0.00027777777777778,,ru,ru|ce,http://stats.grok.se/ru/201506/Аносино,201506,55.840277777778,103,other,Q4066821
ru,Аптекарский переулок (Москва),1,37.676388888889,0.00027777777777778,,ru,ru,http://stats.grok.se/ru/201506/Аптекарский переулок (Москва),201506,55.768333333333,53,topo,Q4068274
ru,Аргуновская улица,1,37.620277777778,0.00027777777777778,,ru,ru,http://stats.grok.se/ru/201506/Аргуновская улица,201506,55.816944444444,35,topo,Q4068864
ru,Армазово,2,37.490063888889,0.0000027777777777778,,ru,ru|ce,http://stats.grok.se/ru/201506/Армазово,201506,55.465813888889,28,other,Q4069548
ru,Армейский (Москва),1,37.200511111111,0.0000027777777777778,,ru,ru,http://stats.grok.se/ru/201506/Армейский (Москва),201506,55.385577777778,25,other,Q4069576
ru,Армянский переулок (Москва),2,37.636666666667,0.00027777777777778,,ru,ru|hy,http://stats.grok.se/ru/201506/Армянский переулок (Москва),201506,55.759722222222,95,topo,Q4069749
ru,Армянский храмовый комплекс (Москва),4,37.621194444444,0.0000027777777777778,,ru,ru|hy|en|nl,http://stats.grok.se/ru/201506/Армянский храмовый комплекс (Москва),201506,55.788055555556,239,religion,Q4069756
ru,Артековская улица (Москва),1,37.613333333333,0.00027777777777778,,ru,ru,http://stats.grok.se/ru/201506/Артековская улица (Москва),201506,55.648888888889,41,topo,Q4070168
ru,Арх Москва,2,37.60480556,0.00000277777777778,,ru,ru|en,http://stats.grok.se/ru/201506/Арх Москва,201506,55.73454722,36,other,Q4070537
ru,Астрадамский проезд,1,37.562222222222,0.00027777777777778,,ru,ru,http://stats.grok.se/ru/201506/Астрадамский проезд,201506,55.812222222222,44,topo,Q4071666
ru,Атомэнергопроект (Москва),1,37.6814,0.0001,,ru,ru,http://stats.grok.se/ru/201506/Атомэнергопроект (Москва),201506,55.77444,89,other,Q4072229
ru,Ашитково,3,38.6025,0.00027777777777778,,ru,ru|ar|ce,http://stats.grok.se/ru/201506/Ашитково,201506,55.437222222222,16,other,Q4073482
ru,Аэропорт Внуково (станция),1,37.288611111111,0.00027777777777778,,ru,ru,http://stats.grok.se/ru/201506/Аэропорт Внуково (станция),201506,55.607222222222,34,other,Q4073690
ru,"Аэростар (гостиница, Москва)",1,37.547361111111,0.000027777777777778,,ru,ru,"http://stats.grok.se/ru/201506/Аэростар (гостиница, Москва)",201506,55.790277777778,46,other,Q4073708
ru,Бабушкин (Москва),1,37.68,0.01,,ru,ru,http://stats.grok.se/ru/201506/Бабушкин (Москва),201506,55.866,94,other,Q4074570
ru,Бабушкинское кладбище,1,37.7025,0.00027777777777778,,ru,ru,http://stats.grok.se/ru/201506/Бабушкинское кладбище,201506,55.861666666667,125,other,Q4074586
ru,Бабёнки (Москва),1,37.183333333333,0.00027777777777778,,ru,ru,http://stats.grok.se/ru/201506/Бабёнки (Москва),201506,55.35,12,other,Q4074624
ru,Базовская улица (Москва),1,37.511666666667,0.000027777777777778,,ru,ru,http://stats.grok.se/ru/201506/Базовская улица (Москва),201506,55.878138888889,41,topo,Q4075300
ru,Бакунинская улица,1,37.687277777778,0.000027777777777778,,ru,ru,http://stats.grok.se/ru/201506/Бакунинская улица,201506,55.776527777778,75,topo,Q4076121
ru,Балакиревский переулок,1,37.687277777778,0.000027777777777778,,ru,ru,http://stats.grok.se/ru/201506/Балакиревский переулок,201506,55.779305555556,32,topo,Q4076301
ru,Балобаново (Ногинский район),2,38.235277777778,0.00027777777777778,,ru,ru|hy,http://stats.grok.se/ru/201506/Балобаново (Ногинский район),201506,55.841111111111,38,adm,Q4076832
ru,Балчуг (гостиница),1,37.626027777778,0.000027777777777778,,ru,ru,http://stats.grok.se/ru/201506/Балчуг (гостиница),201506,55.74825,103,other,Q4077011
ru,Барашевский переулок,1,37.65,0.00027777777777778,,ru,ru,http://stats.grok.se/ru/201506/Барашевский переулок,201506,55.759444444444,50,topo,Q4077962
ru,Барвихинская улица,1,37.385555555556,0.00027777777777778,,ru,ru,http://stats.grok.se/ru/201506/Барвихинская улица,201506,55.718611111111,30,topo,Q4078090
ru,Баррикада (акция),1,37.60955278,0.000010,,ru,ru,http://stats.grok.se/ru/201506/Баррикада (акция),201506,55.75540556,29,event,Q4078487
ru,Басманная больница,1,37.665488888889,0.0000027777777777778,,ru,ru,http://stats.grok.se/ru/201506/Басманная больница,201506,55.769675,73,other,Q4079075
ru,Басманный тупик,1,37.6575,0.00027777777777778,,ru,ru,http://stats.grok.se/ru/201506/Басманный тупик,201506,55.766388888889,37,other,Q4079081
ru,Басовская улица,1,37.738611111111,0.00027777777777778,,ru,ru,http://stats.grok.se/ru/201506/Басовская улица,201506,55.738055555556,12,topo,Q4079132
ru,Батюнинская улица,1,37.704722222222,0.00027777777777778,,ru,ru,http://stats.grok.se/ru/201506/Батюнинская улица,201506,55.658333333333,21,topo,Q4079632
ru,Бахчиванджи (платформа),1,38.083888888889,0.00027777777777778,,ru,ru,http://stats.grok.se/ru/201506/Бахчиванджи (платформа),201506,55.8825,67,other,Q4079979
ru,Бачурино,2,37.510808333333,0.0000027777777777778,,ru,ru|ce,http://stats.grok.se/ru/201506/Бачурино,201506,55.573016666667,97,other,Q4080057
ru,Башкино (платформа),1,36.67275,0.000027777777777778,,ru,ru,http://stats.grok.se/ru/201506/Башкино (платформа),201506,55.317611111111,45,other,Q4080135
ru,Бекасово (Московская область),2,36.801944444444,0.00027777777777778,,ru,ru|hy,http://stats.grok.se/ru/201506/Бекасово (Московская область),201506,55.421388888889,73,adm,Q4081294
ru,Бекасово (железнодорожный узел),1,36.891666666667,0.00027777777777778,,ru,ru,http://stats.grok.se/ru/201506/Бекасово (железнодорожный узел),201506,55.398333333333,2,other,Q4081295
ru,Белгородский проезд,1,37.646722222222,0.000027777777777778,,ru,ru,http://stats.grok.se/ru/201506/Белгородский проезд,201506,55.760027777778,34,topo,Q4081727
ru,Белое озеро (Москва),2,37.852222222222,0.00027777777777778,,ru,ru|cv,http://stats.grok.se/ru/201506/Белое озеро (Москва),201506,55.720277777778,253,other,Q4082415
ru,Беломорская улица (Москва),1,37.476388888889,0.000027777777777778,,ru,ru,http://stats.grok.se/ru/201506/Беломорская улица (Москва),201506,55.865277777778,59,topo,Q4082595
ru,Белоозёрская (платформа),1,38.451166666667,0.000027777777777778,,ru,ru,http://stats.grok.se/ru/201506/Белоозёрская (платформа),201506,55.461,20,other,Q4082626
ru,Белые Столбы,2,37.847325,0.000010,,ru,ru|ar,http://stats.grok.se/ru/201506/Белые Столбы,201506,55.32794722,187,other,Q4083011
ru,Береговая улица (Москва),1,37.464769444444,0.0000027777777777778,,ru,ru,http://stats.grok.se/ru/201506/Береговая улица (Москва),201506,55.827469444444,37,topo,Q4084239
ru,Бережки (Подольский район),1,37.595083333333,0.0000027777777777778,,ru,ru,http://stats.grok.se/ru/201506/Бережки (Подольский район),201506,55.376683333333,45,adm,Q4084305
ru,Бережковский мост,1,37.546944444444,0.00027777777777778,,ru,ru,http://stats.grok.se/ru/201506/Бережковский мост,201506,55.727777777778,61,topo,Q4084315
ru,Бережковская набережная,1,37.561666666667,0.00027777777777778,,ru,ru,http://stats.grok.se/ru/201506/Бережковская набережная,201506,55.735277777778,96,other,Q4084316
ru,Берников переулок,1,37.650111111111,0.000027777777777778,,ru,ru,http://stats.grok.se/ru/201506/Берников переулок,201506,55.748555555556,20,topo,Q4085102
ru,Берёзовая аллея (Москва),1,37.619555555556,0.000027777777777778,,ru,ru,http://stats.grok.se/ru/201506/Берёзовая аллея (Москва),201506,55.849,73,other,Q4085396
ru,Бескудниковский бульвар,1,37.527861111111,0.000027777777777778,,ru,ru,http://stats.grok.se/ru/201506/Бескудниковский бульвар,201506,55.890166666667,126,other,Q4085654
ru,Библиотека украинской литературы в Москве,2,37.63310278,0.000010,,ru,ru|uk,http://stats.grok.se/ru/201506/Библиотека украинской литературы в Москве,201506,55.79036944,46,other,Q4086384
ru,Библиотечная улица (Москва),1,37.674027777778,0.000027777777777778,,ru,ru,http://stats.grok.se/ru/201506/Библиотечная улица (Москва),201506,55.744555555556,30,topo,Q4086396
ru,Биржевая площадь (Москва),1,37.625194444444,0.000027777777777778,,ru,ru,http://stats.grok.se/ru/201506/Биржевая площадь (Москва),201506,55.755194444444,59,topo,Q4086997
ru,Бирюлёво (усадьба),1,37.586666666667,0.00027777777777778,,ru,ru,http://stats.grok.se/ru/201506/Бирюлёво (усадьба),201506,55.606666666667,44,other,Q4087176
ru,Бирюлёвская улица,1,37.663888888889,0.00027777777777778,,ru,ru,http://stats.grok.se/ru/201506/Бирюлёвская улица,201506,55.591944444444,43,topo,Q4087178
ru,Бирюлёвский лесопарк,1,37.693055555556,0.00027777777777778,,ru,ru,http://stats.grok.se/ru/201506/Бирюлёвский лесопарк,201506,55.595,55,topo,Q4087180
ru,Бисерово (озеро),3,38.116666666667,0.016666666666667,,ru,ru|cv|br,http://stats.grok.se/ru/201506/Бисерово (озеро),201506,55.766666666667,150,other,Q4087219
ru,Благовещенский переулок,1,37.597805555556,0.000027777777777778,,ru,ru,http://stats.grok.se/ru/201506/Благовещенский переулок,201506,55.767194444444,41,topo,Q4087781
ru,Богатырский мост,1,37.687222222222,0.00027777777777778,,ru,ru,http://stats.grok.se/ru/201506/Богатырский мост,201506,55.816666666667,20,topo,Q4089084
ru,Богданиха (Московская область),1,37.877697222222,0.0000027777777777778,,ru,ru,http://stats.grok.se/ru/201506/Богданиха (Московская область),201506,55.539483333333,22,adm,Q4089196
ru,Богородское кладбище (Ногинский район Московской области),1,38.3101,0.0000027777777777778,,ru,ru,http://stats.grok.se/ru/201506/Богородское кладбище (Ногинский район Московской области),201506,55.766072222222,89,adm,Q4089744
ru,Боенский проезд,1,37.698888888889,0.000027777777777778,,ru,ru,http://stats.grok.se/ru/201506/Боенский проезд,201506,55.734222222222,25,topo,Q4090133
ru,Бойня (станция),1,37.693055555556,0.00027777777777778,,ru,ru,http://stats.grok.se/ru/201506/Бойня (станция),201506,55.725555555556,96,other,Q4090455
ru,Болотная улица (Москва),1,37.621388888889,0.00027777777777778,,ru,ru,http://stats.grok.se/ru/201506/Болотная улица (Москва),201506,55.745833333333,39,topo,Q4090906
ru,Болотниковская улица,1,37.596388888889,0.00027777777777778,,ru,ru,http://stats.grok.se/ru/201506/Болотниковская улица,201506,55.6575,44,topo,Q4090919
ru,Болшево (Королёв),2,37.85,0.016666666666667,,ru,ru|en,http://stats.grok.se/ru/201506/Болшево (Королёв),201506,55.93333333,117,other,Q4091084
ru,Большая Грузинская улица,1,37.579722222222,0.000027777777777778,,ru,ru,http://stats.grok.se/ru/201506/Большая Грузинская улица,201506,55.768138888889,113,topo,Q4091279
ru,Большая Дорогомиловская улица,1,37.565555555556,0.00027777777777778,,ru,ru,http://stats.grok.se/ru/201506/Большая Дорогомиловская улица,201506,55.745833333333,70,topo,Q4091300
ru,Большая Марьинская улица,1,37.634277777778,0.000027777777777778,,ru,ru,http://stats.grok.se/ru/201506/Большая Марьинская улица,201506,55.806472222222,21,topo,Q4091486
ru,Большая Набережная улица,1,37.45875,0.000027777777777778,,ru,ru,http://stats.grok.se/ru/201506/Большая Набережная улица,201506,55.830361111111,34,topo,Q4091512
ru,Большая Очаковская улица,1,37.453888888889,0.00027777777777778,,ru,ru,http://stats.grok.se/ru/201506/Большая Очаковская улица,201506,55.680833333333,61,topo,Q4091564
ru,Большая Переяславская улица,1,37.641166666667,0.000027777777777778,,ru,ru,http://stats.grok.se/ru/201506/Большая Переяславская улица,201506,55.785527777778,75,topo,Q4091573
ru,Большая Почтовая улица,1,37.693277777778,0.000027777777777778,,ru,ru,http://stats.grok.se/ru/201506/Большая Почтовая улица,201506,55.776416666667,82,topo,Q4091597
ru,Большая Садовая улица (Москва),1,37.593,0.000027777777777778,,ru,ru,http://stats.grok.se/ru/201506/Большая Садовая улица (Москва),201506,55.767666666667,133,topo,Q4091640
ru,Большая Тихоновская улица,1,37.687527777778,0.000027777777777778,,ru,ru,http://stats.grok.se/ru/201506/Большая Тихоновская улица,201506,55.80575,11,topo,Q4091724
ru,Большая Черёмушкинская улица,2,37.588888888889,0.00027777777777778,,ru,ru|en,http://stats.grok.se/ru/201506/Большая Черёмушкинская улица,201506,55.6825,66,topo,Q4091787
ru,Большое Брянцево,2,37.676611111111,0.0000027777777777778,,ru,ru|ce,http://stats.grok.se/ru/201506/Большое Брянцево,201506,55.486275,15,other,Q4092265
ru,Большое Буньково,4,38.610277777778,0.00027777777777778,,ru,ru|hy|ar|ce,http://stats.grok.se/ru/201506/Большое Буньково,201506,55.851111111111,71,other,Q4092267
ru,Большой Афанасьевский переулок,1,37.59725,0.000027777777777778,,ru,ru,http://stats.grok.se/ru/201506/Большой Афанасьевский переулок,201506,55.748138888889,73,topo,Q4092522
ru,Большой Головин переулок,1,37.628722222222,0.000027777777777778,,ru,ru,http://stats.grok.se/ru/201506/Большой Головин переулок,201506,55.769416666667,45,topo,Q4092580
ru,Большой Демидовский переулок,1,37.676611111111,0.000027777777777778,,ru,ru,http://stats.grok.se/ru/201506/Большой Демидовский переулок,201506,55.765972222222,19,topo,Q4092599
ru,Большой Дровяной переулок,1,37.658138888889,0.000027777777777778,,ru,ru,http://stats.grok.se/ru/201506/Большой Дровяной переулок,201506,55.745222222222,29,topo,Q4092608
ru,Большой Златоустинский переулок,1,37.632333333333,0.000027777777777778,,ru,ru,http://stats.grok.se/ru/201506/Большой Златоустинский переулок,201506,55.758888888889,75,topo,Q4092621
ru,Большой Калитниковский проезд,1,37.688472222222,0.000027777777777778,,ru,ru,http://stats.grok.se/ru/201506/Большой Калитниковский проезд,201506,55.734111111111,23,topo,Q4092643
ru,Большой Козловский переулок,1,37.647,0.000027777777777778,,ru,ru,http://stats.grok.se/ru/201506/Большой Козловский переулок,201506,55.767138888889,42,topo,Q4092680
ru,Большой Кондратьевский переулок,1,37.583277777778,0.000027777777777778,,ru,ru,http://stats.grok.se/ru/201506/Большой Кондратьевский переулок,201506,55.773,25,topo,Q4092684
ru,Большой Коптевский проезд,1,37.535555555556,0.000027777777777778,,ru,ru,http://stats.grok.se/ru/201506/Большой Коптевский проезд,201506,55.809861111111,9,topo,Q4092690
ru,Большой Купавенский проезд,1,37.8196,0.01,,ru,ru,http://stats.grok.se/ru/201506/Большой Купавенский проезд,201506,55.7802,14,topo,Q4092710
ru,Большой Патриарший переулок,1,37.592336111111,0.0000027777777777778,,ru,ru,http://stats.grok.se/ru/201506/Большой Патриарший переулок,201506,55.762877777778,45,topo,Q4092788
ru,Большой Предтеченский переулок,1,37.566916666667,0.000027777777777778,,ru,ru,http://stats.grok.se/ru/201506/Большой Предтеченский переулок,201506,55.760027777778,27,topo,Q4092808
ru,Большой Устьинский мост,3,37.638888888889,0.00027777777777778,,ru,ru|de|en,http://stats.grok.se/ru/201506/Большой Устьинский мост,201506,55.747222222222,128,topo,Q4092908
ru,Большой Факельный переулок,1,37.665666666667,0.000027777777777778,,ru,ru,http://stats.grok.se/ru/201506/Большой Факельный переулок,201506,55.740916666667,27,topo,Q4092913
ru,Большой Чудов переулок,1,37.591166666667,0.000027777777777778,,ru,ru,http://stats.grok.se/ru/201506/Большой Чудов переулок,201506,55.733944444444,43,topo,Q4092943
ru,Борисовские мосты,1,37.705555555556,0.00027777777777778,,ru,ru,http://stats.grok.se/ru/201506/Борисовские мосты,201506,55.630277777778,23,topo,Q4093974
ru,Борисоглебский (дворец спорта),2,38.2182,0.01,,ru,ru|en,http://stats.grok.se/ru/201506/Борисоглебский (дворец спорта),201506,55.5774,16,other,Q4094031
ru,Борисоглебский переулок,1,37.589916666667,0.000027777777777778,,ru,ru,http://stats.grok.se/ru/201506/Борисоглебский переулок,201506,55.754361111111,60,topo,Q4094042
ru,Бородинский мост,3,37.573333333333,0.00027777777777778,,ru,ru|en|pl,http://stats.grok.se/ru/201506/Бородинский мост,201506,55.745277777778,134,topo,Q4094592
ru,Борьево,2,37.696191666667,0.0000027777777777778,,ru,ru|ce,http://stats.grok.se/ru/201506/Борьево,201506,55.327530555556,14,other,Q4094965
ru,Ботаническая улица (Москва),1,37.59575,0.000027777777777778,,ru,ru,http://stats.grok.se/ru/201506/Ботаническая улица (Москва),201506,55.833166666667,62,topo,Q4095098
ru,Братеево (Москва),1,37.75055556,0.000010,,ru,ru,http://stats.grok.se/ru/201506/Братеево (Москва),201506,55.63638889,45,other,Q4095874
ru,Братеевский проезд,1,37.742563888889,0.0000027777777777778,,ru,ru,http://stats.grok.se/ru/201506/Братеевский проезд,201506,55.632027777778,18,topo,Q4095881
ru,Братовщина (Московская область),1,37.877777777778,0.00027777777777778,,ru,ru,http://stats.grok.se/ru/201506/Братовщина (Московская область),201506,56.05,65,adm,Q4095919
ru,Бронницкий переулок,1,37.751388888889,0.00027777777777778,,ru,ru,http://stats.grok.se/ru/201506/Бронницкий переулок,201506,55.73,9,topo,Q4097037
ru,Будайская улица,1,37.665555555556,0.000027777777777778,,ru,ru,http://stats.grok.se/ru/201506/Будайская улица,201506,55.831611111111,23,topo,Q4097934
ru,Бульвар Генерала Карбышева,1,37.470277777778,0.00027777777777778,,ru,ru,http://stats.grok.se/ru/201506/Бульвар Генерала Карбышева,201506,55.780277777778,55,other,Q4099030
ru,Бульвар Маршала Рокоссовского,1,37.6175,0.00027777777777778,,ru,ru,http://stats.grok.se/ru/201506/Бульвар Маршала Рокоссовского,201506,55.767777777778,102,other,Q4099052
ru,Бульвар Яна Райниса,1,37.420833333333,0.00027777777777778,,ru,ru,http://stats.grok.se/ru/201506/Бульвар Яна Райниса,201506,55.848888888889,79,other,Q4099078
ru,Бумажная просека,1,37.725277777778,0.00027777777777778,,ru,ru,http://stats.grok.se/ru/201506/Бумажная просека,201506,55.847777777778,42,other,Q4099123
ru,Бунинская аллея,1,37.5145,0.01,,ru,ru,http://stats.grok.se/ru/201506/Бунинская аллея,201506,55.5369,48,other,Q4099215
ru,Бусиновское кладбище,1,37.495780555556,0.0000027777777777778,,ru,ru,http://stats.grok.se/ru/201506/Бусиновское кладбище,201506,55.888333333333,37,other,Q4100077
ru,Бутово (Москва),2,37.55,0.01,,ru,cs|ru,http://stats.grok.se/ru/201506/Бутово (Москва),201506,55.55,420,other,Q4100271
ru,Бутынь (деревня),1,36.943611111111,0.00027777777777778,,ru,ru,http://stats.grok.se/ru/201506/Бутынь (деревня),201506,55.599722222222,54,adm,Q4100377
ru,Бяконтово (Подольский район),1,37.635547222222,0.0000027777777777778,,ru,ru,http://stats.grok.se/ru/201506/Бяконтово (Подольский район),201506,55.477183333333,23,adm,Q4101542
ru,Вагоноремонт,1,37.535,0.001,,ru,ru,http://stats.grok.se/ru/201506/Вагоноремонт,201506,55.90194444,34,other,Q4102262
ru,Валентиновка (платформа),1,37.891666666667,0.00027777777777778,,ru,ru,http://stats.grok.se/ru/201506/Валентиновка (платформа),201506,55.925,58,other,Q4102814
ru,Валовая улица (Москва),1,37.629722222222,0.00027777777777778,,ru,ru,http://stats.grok.se/ru/201506/Валовая улица (Москва),201506,55.730277777778,85,topo,Q4102954
ru,Варсонофьевский переулок,1,37.626666666667,0.00027777777777778,,ru,ru,http://stats.grok.se/ru/201506/Варсонофьевский переулок,201506,55.763333333333,67,topo,Q4104006
ru,Варшавское шоссе,3,37.619698,0.0000010,,ru,ru|en|zh,http://stats.grok.se/ru/201506/Варшавское шоссе,201506,55.64072,422,other,Q4104112
ru,Вахромеево (Московская область),2,37.7725,0.00027777777777778,,ru,ru|hy,http://stats.grok.se/ru/201506/Вахромеево (Московская область),201506,55.340833333333,19,adm,Q4105414
ru,Ведогонь-театр,1,37.22694444,0.0001,,ru,ru,http://stats.grok.se/ru/201506/Ведогонь-театр,201506,55.9975,51,other,Q4105823
ru,Вельяминовская улица,1,37.722759,0.0000010,,ru,ru,http://stats.grok.se/ru/201506/Вельяминовская улица,201506,55.782256,25,topo,Q4107033
ru,Верхнее Валуево,2,37.355388888889,0.0000027777777777778,,ru,ru|ce,http://stats.grok.se/ru/201506/Верхнее Валуево,201506,55.578613888889,41,other,Q4108360
ru,Верхний Сусальный переулок,1,37.660805555556,0.000027777777777778,,ru,ru,http://stats.grok.se/ru/201506/Верхний Сусальный переулок,201506,55.755027777778,25,topo,Q4108730
ru,Верхняя Радищевская улица,1,37.650222222222,0.000027777777777778,,ru,ru,http://stats.grok.se/ru/201506/Верхняя Радищевская улица,201506,55.744,127,topo,Q4108945
ru,Верхоянская улица (Москва),1,37.666944444444,0.00027777777777778,,ru,ru,http://stats.grok.se/ru/201506/Верхоянская улица (Москва),201506,55.857777777778,14,topo,Q4109211
ru,Ветошный переулок,1,37.622111111111,0.000027777777777778,,ru,ru,http://stats.grok.se/ru/201506/Ветошный переулок,201506,55.754972222222,51,topo,Q4110033
ru,Вильнюсская улица (Москва),1,37.521111111111,0.00027777777777778,,ru,ru,http://stats.grok.se/ru/201506/Вильнюсская улица (Москва),201506,55.602222222222,27,topo,Q4111360
ru,Вишняково (Ногинский район),3,38.176388888889,0.00027777777777778,,ru,ru|hy|uk,http://stats.grok.se/ru/201506/Вишняково (Ногинский район),201506,55.740277777778,45,adm,Q4112801
ru,Вишняковское шоссе,1,37.90472222,0.000010,,ru,ru,http://stats.grok.se/ru/201506/Вишняковское шоссе,201506,55.77888889,34,other,Q4112807
ru,Владыкинское кладбище,1,37.591094444444,0.0000027777777777778,,ru,ru,http://stats.grok.se/ru/201506/Владыкинское кладбище,201506,55.845627777778,48,other,Q4113376
ru,"Внуково (поселение Внуковское, деревня)",1,37.263422222222,0.0000027777777777778,,ru,ru,"http://stats.grok.se/ru/201506/Внуково (поселение Внуковское, деревня)",201506,55.644997222222,25,adm,Q4113774
ru,"Внуково (поселение Внуковское, посёлок)",1,37.266338888889,0.0000027777777777778,,ru,ru,"http://stats.grok.se/ru/201506/Внуково (поселение Внуковское, посёлок)",201506,55.646308333333,69,adm,Q4113775
ru,Водопроводный переулок (Москва),1,37.637611111111,0.000027777777777778,,ru,ru,http://stats.grok.se/ru/201506/Водопроводный переулок (Москва),201506,55.794111111111,36,topo,Q4114142
ru,Посёлок завода Мосрентген,4,37.469722222222,0.00027777777777778,,ru,ru|ar|cv|ce,http://stats.grok.se/ru/201506/Посёлок завода Мосрентген,201506,55.613611111111,408,adm,Q4120441
ru,Волжский бульвар,1,37.749444444444,0.00027777777777778,,ru,ru,http://stats.grok.se/ru/201506/Волжский бульвар,201506,55.707222222222,81,other,Q4123130
ru,Вологодский проезд,1,37.578805555556,0.000027777777777778,,ru,ru,http://stats.grok.se/ru/201506/Вологодский проезд,201506,55.905833333333,15,topo,Q4123710
ru,Волоцкой переулок,1,37.350833333333,0.00027777777777778,,ru,ru,http://stats.grok.se/ru/201506/Волоцкой переулок,201506,55.828055555556,22,topo,Q4124039
ru,Воробьёвы Горы (станция),1,37.563055555556,0.00027777777777778,,ru,ru,http://stats.grok.se/ru/201506/Воробьёвы Горы (станция),201506,55.720277777778,112,other,Q4125275
ru,Восьмая улица Соколиной Горы,1,37.739166666667,0.00027777777777778,,ru,ru,http://stats.grok.se/ru/201506/Восьмая улица Соколиной Горы,201506,55.766944444444,7,topo,Q4126743
ru,Всероссийский научно-исследовательский институт лесоводства и механизации лесного хозяйства,1,37.85777778,0.000010,,ru,ru,http://stats.grok.se/ru/201506/Всероссийский научно-исследовательский институт лесоводства и механизации лесного хозяйства,201506,56.01469444,35,education,Q4127508
ru,Вторая Брестская улица,1,37.589305555556,0.000027777777777778,,ru,ru,http://stats.grok.se/ru/201506/Вторая Брестская улица,201506,55.771666666667,21,topo,Q4127801
ru,Вторая Квесисская улица,1,37.576,0.01,,ru,ru,http://stats.grok.se/ru/201506/Вторая Квесисская улица,201506,55.7949,7,topo,Q4127813
ru,Вторая Мытищинская улица,1,37.639027777778,0.000027777777777778,,ru,ru,http://stats.grok.se/ru/201506/Вторая Мытищинская улица,201506,55.798,8,topo,Q4127823
ru,Вторая Новоостанкинская улица,1,37.626166666667,0.000027777777777778,,ru,ru,http://stats.grok.se/ru/201506/Вторая Новоостанкинская улица,201506,55.815916666667,8,topo,Q4127826
ru,Вторая Песчаная улица,1,37.514019444444,0.0000027777777777778,,ru,ru,http://stats.grok.se/ru/201506/Вторая Песчаная улица,201506,55.796311111111,12,topo,Q4127831
ru,Вторая Рейсовая улица,1,37.301166666667,0.000027777777777778,,ru,ru,http://stats.grok.se/ru/201506/Вторая Рейсовая улица,201506,55.609777777778,1,topo,Q4127837
ru,Вторая Филёвская улица,1,37.49194444,0.0001,,ru,ru,http://stats.grok.se/ru/201506/Вторая Филёвская улица,201506,55.7375,12,topo,Q4127851
ru,Вторая Ямская улица,1,37.608333333333,0.00027777777777778,,ru,ru,http://stats.grok.se/ru/201506/Вторая Ямская улица,201506,55.794722222222,2,topo,Q4127861
ru,Вторая улица Синичкина,1,37.713027777778,0.000027777777777778,,ru,ru,http://stats.grok.se/ru/201506/Вторая улица Синичкина,201506,55.762416666667,5,topo,Q4127972
ru,Вторая улица Энтузиастов,1,37.72916667,0.000010,,ru,ru,http://stats.grok.se/ru/201506/Вторая улица Энтузиастов,201506,55.74944444,2,topo,Q4127973
ru,Второй Богатырский переулок,1,37.695938888889,0.0000027777777777778,,ru,ru,http://stats.grok.se/ru/201506/Второй Богатырский переулок,201506,55.81555,4,topo,Q4128037
ru,Второй Ботанический проезд,1,37.638333333333,0.00027777777777778,,ru,ru,http://stats.grok.se/ru/201506/Второй Ботанический проезд,201506,55.850833333333,11,topo,Q4128039
ru,Второй Варшавский проезд,1,37.630277777778,0.00027777777777778,,ru,ru,http://stats.grok.se/ru/201506/Второй Варшавский проезд,201506,55.644166666667,2,topo,Q4128043
ru,Второй Вышеславцев переулок,1,37.607222222222,0.000027777777777778,,ru,ru,http://stats.grok.se/ru/201506/Второй Вышеславцев переулок,201506,55.791222222222,6,topo,Q4128047
ru,Второй Ирининский переулок,1,37.688888888889,0.000027777777777778,,ru,ru,http://stats.grok.se/ru/201506/Второй Ирининский переулок,201506,55.775111111111,9,topo,Q4128063
ru,Второй Кожуховский проезд,1,37.660858333333,0.0000027777777777778,,ru,ru,http://stats.grok.se/ru/201506/Второй Кожуховский проезд,201506,55.704338888889,5,topo,Q4128070
ru,Второй Коптельский переулок,1,37.646416666667,0.000027777777777778,,ru,ru,http://stats.grok.se/ru/201506/Второй Коптельский переулок,201506,55.77675,2,topo,Q4128074
ru,Второй Красносельский переулок,1,37.665722222222,0.000027777777777778,,ru,ru,http://stats.grok.se/ru/201506/Второй Красносельский переулок,201506,55.782833333333,14,topo,Q4128081
ru,Второй Лесной переулок (Москва),1,37.58825,0.000027777777777778,,ru,ru,http://stats.grok.se/ru/201506/Второй Лесной переулок (Москва),201506,55.7805,10,topo,Q4128086
ru,Второй Мосфильмовский переулок,1,37.52375,0.000027777777777778,,ru,ru,http://stats.grok.se/ru/201506/Второй Мосфильмовский переулок,201506,55.725027777778,10,topo,Q4128094
ru,Второй Неопалимовский переулок,1,37.582638888889,0.000027777777777778,,ru,ru,http://stats.grok.se/ru/201506/Второй Неопалимовский переулок,201506,55.739555555556,8,topo,Q4128097
ru,Второй Новый переулок (Москва),1,37.669388888889,0.000027777777777778,,ru,ru,http://stats.grok.se/ru/201506/Второй Новый переулок (Москва),201506,55.779916666667,7,topo,Q4128103
ru,Второй Павелецкий проезд,1,37.64225,0.000027777777777778,,ru,ru,http://stats.grok.se/ru/201506/Второй Павелецкий проезд,201506,55.713,5,topo,Q4128107
ru,Второй Ростовский переулок,1,37.577388888889,0.000027777777777778,,ru,ru,http://stats.grok.se/ru/201506/Второй Ростовский переулок,201506,55.743722222222,0,topo,Q4128114
ru,Второй Самотёчный переулок,1,37.614888888889,0.000027777777777778,,ru,ru,http://stats.grok.se/ru/201506/Второй Самотёчный переулок,201506,55.777888888889,8,topo,Q4128117
ru,Второй Сельскохозяйственный проезд,1,37.64375,0.000027777777777778,,ru,ru,http://stats.grok.se/ru/201506/Второй Сельскохозяйственный проезд,201506,55.833305555556,4,topo,Q4128121
ru,Второй Смоленский переулок,1,37.581194444444,0.000027777777777778,,ru,ru,http://stats.grok.se/ru/201506/Второй Смоленский переулок,201506,55.747138888889,4,topo,Q4128123
ru,Второй Стрелецкий переулок,1,37.606666666667,0.000027777777777778,,ru,ru,http://stats.grok.se/ru/201506/Второй Стрелецкий переулок,201506,55.797194444444,1,topo,Q4128125
ru,Второй Тверской-Ямской переулок,1,37.593055555556,0.00027777777777778,,ru,ru,http://stats.grok.se/ru/201506/Второй Тверской-Ямской переулок,201506,55.773055555556,15,topo,Q4128127
ru,Второй Тульский переулок (Москва),1,37.61916667,0.000010,,ru,ru,http://stats.grok.se/ru/201506/Второй Тульский переулок (Москва),201506,55.70347222,5,topo,Q4128130
ru,Второй Хвостов переулок,1,37.615638888889,0.000027777777777778,,ru,ru,http://stats.grok.se/ru/201506/Второй Хвостов переулок,201506,55.73575,3,topo,Q4128131
ru,Второй Электрозаводский переулок,1,37.7078676,1.0E-7,,ru,ru,http://stats.grok.se/ru/201506/Второй Электрозаводский переулок,201506,55.7893633,3,topo,Q4128138
ru,Второй переулок Измайловского Зверинца,1,37.745277,0.0000010,,ru,ru,http://stats.grok.se/ru/201506/Второй переулок Измайловского Зверинца,201506,55.780054,3,topo,Q4128172
ru,Второй проезд Марьиной Рощи,1,37.620722222222,0.000027777777777778,,ru,ru,http://stats.grok.se/ru/201506/Второй проезд Марьиной Рощи,201506,55.795583333333,3,topo,Q4128175
ru,Выползов переулок,1,37.627638888889,0.000027777777777778,,ru,ru,http://stats.grok.se/ru/201506/Выползов переулок,201506,55.77925,32,topo,Q4129072
ru,Вырубово (Ленинский район),1,37.621794444444,0.0000027777777777778,,ru,ru,http://stats.grok.se/ru/201506/Вырубово (Ленинский район),201506,55.566908333333,18,adm,Q4129186
ru,Вырубово (Одинцовский район),1,37.314444444444,0.00027777777777778,,ru,ru,http://stats.grok.se/ru/201506/Вырубово (Одинцовский район),201506,55.674166666667,35,adm,Q4129187
ru,Вятская улица (Москва),1,37.58206,0.000010,,ru,ru,http://stats.grok.se/ru/201506/Вятская улица (Москва),201506,55.80005,44,topo,Q4130485
ru,Гаврикова улица,1,37.671833333333,0.000027777777777778,,ru,ru,http://stats.grok.se/ru/201506/Гаврикова улица,201506,55.780361111111,23,topo,Q4131103
ru,Газгольдерная улица,1,37.731958333333,0.0000027777777777778,,ru,ru,http://stats.grok.se/ru/201506/Газгольдерная улица,201506,55.728777777778,61,topo,Q4131646
ru,Газопровод (Москва),2,37.476388888889,0.00027777777777778,,ru,ru|hy,http://stats.grok.se/ru/201506/Газопровод (Москва),201506,55.580833333333,92,other,Q4131751
ru,Гараж Интуриста,1,37.606111111111,0.00027777777777778,,ru,ru,http://stats.grok.se/ru/201506/Гараж Интуриста,201506,55.793611111111,151,other,Q4133525
ru,Гарднеровский переулок,1,37.678305555556,0.000027777777777778,,ru,ru,http://stats.grok.se/ru/201506/Гарднеровский переулок,201506,55.766416666667,13,topo,Q4133671
ru,Гжатская улица (Москва),1,37.434722222222,0.00027777777777778,,ru,ru,http://stats.grok.se/ru/201506/Гжатская улица (Москва),201506,55.715,28,topo,Q4137853
ru,Гжель (станция),1,38.449722222222,0.00027777777777778,,ru,ru,http://stats.grok.se/ru/201506/Гжель (станция),201506,55.608611111111,48,other,Q4137863
ru,Гимназия № 1505,1,37.728611111111,0.00027777777777778,,ru,ru,http://stats.grok.se/ru/201506/Гимназия № 1505,201506,55.795555555556,56,other,Q4138525
ru,Гимназия № 1520 имени Капцовых,1,37.604722222222,0.00027777777777778,,ru,ru,http://stats.grok.se/ru/201506/Гимназия № 1520 имени Капцовых,201506,55.760833333333,102,other,Q4138530
ru,Гимназия № 1530,1,37.68444444,0.000010,,ru,ru,http://stats.grok.se/ru/201506/Гимназия № 1530,201506,55.79333333,29,other,Q4138532
ru,Гипросвязь,2,37.49984722,0.000010,,ru,ru|en,http://stats.grok.se/ru/201506/Гипросвязь,201506,55.78178333,69,other,Q4138846
ru,Главный вычислительный центр Госплана СССР,1,37.64305556,0.000010,,ru,ru,http://stats.grok.se/ru/201506/Главный вычислительный центр Госплана СССР,201506,55.76916667,37,other,Q4139191
ru,Глебовский (посёлок),1,36.698611111111,0.00027777777777778,,ru,ru,http://stats.grok.se/ru/201506/Глебовский (посёлок),201506,55.938888888889,90,adm,Q4139647
ru,Глинищевский переулок,1,37.610555555556,0.00027777777777778,,ru,ru,http://stats.grok.se/ru/201506/Глинищевский переулок,201506,55.763333333333,47,topo,Q4139762
ru,Голенищево (Москва),1,37.281638888889,0.0000027777777777778,,ru,ru,http://stats.grok.se/ru/201506/Голенищево (Москва),201506,55.574802777778,6,other,Q4141440
ru,Головково (Солнечногорский район),1,36.884166666667,0.00027777777777778,,ru,ru,http://stats.grok.se/ru/201506/Головково (Солнечногорский район),201506,56.212222222222,42,adm,Q4141954
ru,Голубое (Московская область),1,37.103555555556,0.000027777777777778,,ru,ru,http://stats.grok.se/ru/201506/Голубое (Московская область),201506,55.983055555556,73,adm,Q4142535
ru,Голубятня (дача),1,37.60514167,0.000010,,ru,ru,http://stats.grok.se/ru/201506/Голубятня (дача),201506,55.70960833,55,other,Q4142644
ru,Гончарная набережная,1,37.647944444444,0.000027777777777778,,ru,ru,http://stats.grok.se/ru/201506/Гончарная набережная,201506,55.737916666667,33,other,Q4143198
ru,Гора (Давыдовское сельское поселение),3,38.844319444444,0.0000027777777777778,,ru,ru|en|ce,http://stats.grok.se/ru/201506/Гора (Давыдовское сельское поселение),201506,55.604144444444,9,other,Q4143397
ru,Горки (Ленинский район),1,37.756416666667,0.0000027777777777778,,ru,ru,http://stats.grok.se/ru/201506/Горки (Ленинский район),201506,55.508233333333,73,adm,Q4144353
ru,Горлов тупик,1,37.591222222222,0.000027777777777778,,ru,ru,http://stats.grok.se/ru/201506/Горлов тупик,201506,55.784833333333,67,other,Q4144441
ru,Городская усадьба Разумовского,1,37.66861111,0.0001,,ru,ru,http://stats.grok.se/ru/201506/Городская усадьба Разумовского,201506,55.7625,65,other,Q4145444
ru,Городское поселение Белоозёрский,1,38.4422,0.01,,ru,ru,http://stats.grok.se/ru/201506/Городское поселение Белоозёрский,201506,55.4614,56,other,Q4145481
ru,Городское поселение Быково,1,38.0906,0.01,,ru,ru,http://stats.grok.se/ru/201506/Городское поселение Быково,201506,55.6317,30,other,Q4145492
ru,Городское поселение Видное,2,37.7,0.01,,ru,ru|uk,http://stats.grok.se/ru/201506/Городское поселение Видное,201506,55.55,67,other,Q4145495
ru,Городское поселение Воскресенск,2,38.6833,0.01,,ru,ru|uk,http://stats.grok.se/ru/201506/Городское поселение Воскресенск,201506,55.3167,36,other,Q4145500
ru,Городское поселение Голицыно,1,36.9872,0.01,,ru,ru,http://stats.grok.se/ru/201506/Городское поселение Голицыно,201506,55.6147,44,other,Q4145502
ru,Городское поселение Горки Ленинские,1,37.7786,0.01,,ru,ru,http://stats.grok.se/ru/201506/Городское поселение Горки Ленинские,201506,55.5086,39,other,Q4145503
ru,Городское поселение Дедовск,1,37.1219,0.01,,ru,ru,http://stats.grok.se/ru/201506/Городское поселение Дедовск,201506,55.8694,56,other,Q4145506
ru,Городское поселение Истра,2,36.8667,0.01,,ru,ru|uk,http://stats.grok.se/ru/201506/Городское поселение Истра,201506,55.9167,48,other,Q4145516
ru,Городское поселение Красково,1,37.9869,0.01,,ru,ru,http://stats.grok.se/ru/201506/Городское поселение Красково,201506,55.6586,50,other,Q4145525
ru,Городское поселение Красногорск,3,37.3333,0.01,,ru,ru|en|uk,http://stats.grok.se/ru/201506/Городское поселение Красногорск,201506,55.8167,78,other,Q4145526
ru,Городское поселение Монино,1,38.1833,0.01,,ru,ru,http://stats.grok.se/ru/201506/Городское поселение Монино,201506,55.8333,38,other,Q4145544
ru,Городское поселение Мытищи,1,37.7333,0.01,,ru,ru,http://stats.grok.se/ru/201506/Городское поселение Мытищи,201506,55.9167,97,other,Q4145545
ru,Городское поселение Новоивановское,1,37.3675,0.01,,ru,ru,http://stats.grok.se/ru/201506/Городское поселение Новоивановское,201506,55.7067,73,other,Q4145550
ru,Городское поселение Старая Купавна,1,38.1833,0.01,,ru,ru,http://stats.grok.se/ru/201506/Городское поселение Старая Купавна,201506,55.8,50,other,Q4145599
ru,Городское поселение Томилино,1,37.95,0.01,,ru,ru,http://stats.grok.se/ru/201506/Городское поселение Томилино,201506,55.65,58,other,Q4145608
ru,Городское поселение Фряново,1,38.44,0.01,,ru,ru,http://stats.grok.se/ru/201506/Городское поселение Фряново,201506,56.1342,39,other,Q4145611
ru,Городское поселение Щёлково,1,38.0,0.01,,ru,ru,http://stats.grok.se/ru/201506/Городское поселение Щёлково,201506,55.9167,67,other,Q4145619
ru,Городское поселение имени Воровского,1,38.3419,0.01,,ru,ru,http://stats.grok.se/ru/201506/Городское поселение имени Воровского,201506,55.7261,77,other,Q4145628
ru,Городской округ Фрязино,1,38.04333334,0.0001,,ru,ru,http://stats.grok.se/ru/201506/Городской округ Фрязино,201506,55.95666668,62,other,Q4145680
ru,Гороховский переулок (Москва),1,37.665805555556,0.000027777777777778,,ru,ru,http://stats.grok.se/ru/201506/Гороховский переулок (Москва),201506,55.765055555556,45,topo,Q4145832
ru,Гослото,1,37.643645,0.000010,,ru,ru,http://stats.grok.se/ru/201506/Гослото,201506,55.758032,622,other,Q4146366
ru,Гостиничная улица,1,37.580305555556,0.000027777777777778,,ru,ru,http://stats.grok.se/ru/201506/Гостиничная улица,201506,55.843944444444,27,topo,Q4146479
ru,Государственная публичная научно-техническая библиотека,2,37.621055,0.00000277777777778,,ru,ru|en,http://stats.grok.se/ru/201506/Государственная публичная научно-техническая библиотека,201506,55.761687,144,other,Q4146639
ru,"Государственный выставочный зал-музей ""Наследие""",1,37.68613333,0.000010,,ru,ru,"http://stats.grok.se/ru/201506/Государственный выставочный зал-музей ""Наследие""",201506,55.58386111,7,other,Q4146791
ru,Государственный геологический музей им. В. И. Вернадского РАН,2,37.6113,0.0012771147309681,,ru,ru|en,http://stats.grok.se/ru/201506/Государственный геологический музей им. В. И. Вернадского РАН,201506,55.7562,26,other,Q4146793
ru,Государственный музыкально-педагогический институт имени М. М. Ипполитова-Иванова,2,37.66581944,0.000010,,ru,ru|uk,http://stats.grok.se/ru/201506/Государственный музыкально-педагогический институт имени М. М. Ипполитова-Иванова,201506,55.73448333,218,education,Q4146899
